# message_name [message contents] ipc_timestamp ipc_hostname logger_timestamp
# message formats defined: PARAM SYNC ODOM FLASER RLASER TRUEPOS
# PARAM param_name param_value
# SYNC tagname
# ODOM x y theta tv rv accel
# FLASER num_readings [range_readings] x y theta odom_x odom_y odom_theta
# RLASER num_readings [range_readings] x y theta odom_x odom_y odom_theta
# TRUEPOS true_x true_y true_theta odom_x odom_y odom_theta
# NMEA-GGA utc latitude lat_orient longitude long_orient gps_quality num_sattelites hdop sea_level alitude geo_sea_level geo_sep data_age
PARAM robot_use_laser on nohost 0
PARAM simulator_num_readings 180 nohost 0
PARAM robot_frontlaser_offset 0.0 nohost 0
PARAM robot_rearlaser_offset 0.0 nohost 0
ODOM -0.000602 0.012727 -1.570796 0.000000 0.000000 0.000000 70.179699 nohost 0.000000
FLASER 180 46.56 47.31 12.51 14.71 12.16 12.26 12.21 11.76 10.56 9.46 8.66 7.91 7.31 6.81 6.31 5.96 5.66 5.26 5.06 4.86 4.61 4.41 4.16 4.06 3.86 3.76 3.66 3.51 3.36 3.26 3.21 3.06 3.01 2.96 2.81 2.76 2.74 2.64 2.59 2.59 2.49 2.44 2.39 2.39 2.29 2.29 2.24 2.19 2.19 2.14 2.09 2.09 2.04 2.04 1.99 1.94 1.94 1.94 1.92 1.85 1.92 1.99 2.04 2.14 2.16 2.26 2.36 2.46 2.56 2.66 2.81 2.96 3.16 3.36 3.56 3.76 4.06 4.41 4.81 5.21 5.76 6.26 7.16 8.36 9.91 12.16 18.76 21.76 24.61 30.31 30.31 30.31 16.41 12.71 10.11 8.96 7.36 6.41 5.66 5.16 4.66 4.36 4.41 4.71 4.76 4.76 4.76 2.86 2.71 2.56 2.46 2.36 2.26 2.16 2.06 1.96 1.89 1.84 1.84 1.84 1.89 1.89 1.94 1.94 1.99 2.04 2.04 2.04 2.09 2.14 2.14 2.19 2.24 2.29 2.29 2.34 2.39 2.41 2.51 2.46 2.31 2.31 2.36 2.36 2.41 2.41 2.51 2.61 3.16 3.26 6.91 4.61 50.00 50.00 6.16 6.11 6.06 6.01 6.01 5.91 6.01 5.86 5.81 5.81 5.76 5.76 5.71 5.76 5.61 3.31 5.56 5.51 5.56 5.56 5.56 3.01 6.46 6.36 4.46 6.36 -0.000602 0.012727 -1.570796 -0.000602 0.012727 -1.570796 70.289900 nohost 0.110201
ODOM -0.000602 0.012727 -1.570796 0.000000 0.000000 0.000000 70.309700 nohost 0.130001
FLASER 180 46.51 47.26 12.56 14.76 12.16 12.26 12.21 11.76 10.51 9.46 8.61 7.91 7.26 6.81 6.31 6.01 5.66 5.31 5.06 4.81 4.61 4.36 4.21 4.01 3.86 3.76 3.61 3.51 3.36 3.31 3.16 3.11 3.01 2.91 2.86 2.76 2.74 2.69 2.59 2.54 2.49 2.44 2.39 2.34 2.29 2.29 2.24 2.19 2.19 2.14 2.09 2.09 2.04 2.04 1.99 1.99 1.94 1.94 1.92 1.95 1.92 1.94 2.04 2.14 2.16 2.26 2.36 2.46 2.56 2.66 2.81 2.96 3.16 3.36 3.51 3.76 4.06 4.41 4.81 5.26 5.76 6.21 7.16 8.31 9.91 12.11 18.76 21.71 24.61 30.31 30.31 30.36 16.41 12.71 10.11 8.91 7.31 6.36 5.71 5.16 4.66 4.36 4.36 4.71 4.71 4.76 4.81 2.86 2.66 2.56 2.46 2.31 2.21 2.16 2.06 2.01 1.91 1.84 1.84 1.89 1.89 1.94 1.94 1.99 1.99 2.04 2.04 2.04 2.09 2.09 2.14 2.24 2.24 2.24 2.29 2.34 2.44 2.44 2.46 2.41 2.31 2.31 2.36 2.36 2.46 2.41 2.51 2.56 3.11 3.31 6.91 4.61 50.00 50.00 6.16 6.11 6.06 6.06 5.96 5.91 6.01 5.86 5.81 5.81 5.76 5.76 5.71 5.71 5.61 3.26 5.56 5.56 5.51 5.51 5.56 3.01 6.46 6.36 4.41 6.36 -0.000602 0.012727 -1.570796 -0.000602 0.012727 -1.570796 70.410399 nohost 0.230700
ODOM -0.000602 0.012727 -1.570796 0.000000 0.000000 0.000000 70.429500 nohost 0.249801
FLASER 180 46.56 47.31 12.51 14.71 12.16 12.31 12.21 11.71 10.51 9.46 8.61 7.91 7.31 6.81 6.36 6.01 5.66 5.31 5.06 4.81 4.56 4.36 4.21 4.01 3.91 3.76 3.61 3.51 3.36 3.31 3.16 3.06 3.01 2.91 2.86 2.81 2.71 2.64 2.64 2.59 2.49 2.44 2.39 2.34 2.34 2.29 2.24 2.19 2.14 2.14 2.09 2.09 2.04 1.99 1.99 1.94 1.94 1.94 1.97 1.90 1.92 1.94 2.09 2.14 2.16 2.26 2.36 2.46 2.61 2.71 2.76 2.96 3.16 3.31 3.51 3.81 4.06 4.41 4.81 5.21 5.76 6.26 7.16 8.31 9.86 12.16 18.76 21.81 24.66 30.26 30.31 30.31 16.41 12.76 10.11 8.91 7.31 6.41 5.66 5.16 4.66 4.36 4.36 4.71 4.76 4.76 4.81 2.86 2.71 2.56 2.46 2.36 2.26 2.11 2.06 2.01 1.94 1.84 1.84 1.89 1.89 1.89 1.94 1.94 1.99 1.99 2.04 2.04 2.09 2.14 2.19 2.19 2.24 2.29 2.29 2.39 2.39 2.44 2.46 2.46 2.36 2.31 2.31 2.36 2.41 2.41 2.46 2.56 3.16 3.31 6.91 4.61 50.00 50.00 6.16 6.11 6.06 6.01 5.96 5.91 6.01 5.86 5.81 5.81 5.76 5.71 5.71 5.71 5.61 3.31 5.56 5.56 5.51 5.51 5.56 2.96 6.41 6.36 4.46 6.36 -0.000602 0.012727 -1.570796 -0.000602 0.012727 -1.570796 70.521299 nohost 0.341600
ODOM -0.000602 0.012727 -1.570796 0.000000 0.000000 0.000000 70.559700 nohost 0.380001
FLASER 180 46.51 47.31 12.61 14.71 12.11 12.26 12.21 11.76 10.51 9.41 8.61 7.86 7.31 6.81 6.36 6.01 5.61 5.36 5.06 4.81 4.61 4.36 4.21 4.06 3.86 3.76 3.61 3.51 3.41 3.26 3.21 3.11 3.01 2.91 2.81 2.81 2.71 2.64 2.64 2.54 2.49 2.49 2.39 2.34 2.34 2.29 2.24 2.19 2.14 2.14 2.09 2.04 2.04 2.04 1.99 1.99 1.94 1.94 1.97 1.95 1.87 1.99 2.04 2.09 2.16 2.31 2.36 2.46 2.56 2.71 2.81 3.01 3.11 3.36 3.56 3.81 4.11 4.36 4.81 5.26 5.76 6.21 7.16 8.36 9.91 12.11 18.76 21.76 24.61 30.31 30.31 30.31 16.41 12.71 10.11 8.91 7.31 6.36 5.66 5.16 4.66 4.41 4.36 4.71 4.71 4.76 4.76 2.86 2.71 2.56 2.41 2.36 2.26 2.16 2.06 2.01 1.89 1.84 1.89 1.89 1.89 1.89 1.94 1.99 1.99 1.99 2.04 2.04 2.09 2.14 2.14 2.19 2.24 2.29 2.29 2.34 2.34 2.39 2.46 2.41 2.31 2.31 2.31 2.36 2.41 2.41 2.51 2.56 3.11 3.26 6.96 4.61 50.00 50.00 6.21 6.16 6.11 6.01 6.01 5.91 5.96 5.86 5.81 5.81 5.76 5.76 5.71 5.71 5.56 3.31 5.56 5.56 5.51 5.56 5.51 2.96 6.46 6.36 4.46 6.31 -0.000602 0.012727 -1.570796 -0.000602 0.012727 -1.570796 70.639600 nohost 0.459901
ODOM -0.000602 0.012727 -1.570796 0.000000 0.000000 0.000000 70.709699 nohost 0.530000
FLASER 180 46.51 47.31 12.51 14.71 12.16 12.26 12.16 11.71 10.51 9.46 8.61 7.91 7.31 6.81 6.36 6.01 5.66 5.36 5.06 4.86 4.61 4.41 4.16 4.01 3.86 3.76 3.61 3.51 3.36 3.31 3.16 3.06 3.01 2.91 2.86 2.81 2.66 2.69 2.59 2.59 2.49 2.44 2.34 2.34 2.34 2.29 2.24 2.19 2.14 2.14 2.09 2.04 2.04 1.99 1.99 1.99 1.94 1.94 1.97 1.92 1.87 1.99 2.04 2.11 2.21 2.26 2.36 2.46 2.56 2.66 2.86 2.96 3.16 3.36 3.56 3.81 4.11 4.46 4.76 5.26 5.76 6.26 7.21 8.31 9.91 12.11 18.81 21.76 24.61 30.31 30.31 30.31 16.41 12.71 10.11 8.91 7.36 6.41 5.66 5.16 4.66 4.41 4.41 4.71 4.76 4.76 4.76 2.86 2.71 2.56 2.46 2.31 2.26 2.11 2.01 1.96 1.94 1.84 1.84 1.89 1.89 1.94 1.94 1.94 1.94 2.04 2.04 2.09 2.09 2.14 2.14 2.19 2.24 2.29 2.29 2.34 2.39 2.44 2.51 2.41 2.36 2.31 2.36 2.36 2.36 2.46 2.51 2.56 3.11 3.26 6.96 4.56 50.00 50.00 6.21 6.11 6.06 6.01 6.01 5.91 6.01 5.86 5.81 5.81 5.76 5.76 5.71 5.71 5.56 3.31 5.51 5.56 5.51 5.56 5.51 2.96 6.46 6.36 4.46 6.36 -0.000602 0.012727 -1.570796 -0.000602 0.012727 -1.570796 70.839600 nohost 0.659901
ODOM -0.000602 0.012727 -1.570796 0.000000 0.000000 0.000000 70.841200 nohost 0.661501
FLASER 180 46.51 47.21 12.56 14.71 12.16 12.26 12.21 11.76 10.51 9.46 8.61 7.91 7.36 6.81 6.31 6.01 5.66 5.31 5.06 4.81 4.56 4.36 4.21 4.06 3.91 3.76 3.61 3.51 3.41 3.26 3.16 3.06 3.01 2.96 2.81 2.76 2.69 2.64 2.64 2.59 2.49 2.49 2.39 2.39 2.34 2.29 2.24 2.24 2.14 2.09 2.09 2.09 2.04 2.04 1.99 1.99 1.94 1.89 1.92 1.90 1.87 1.99 2.04 2.14 2.21 2.26 2.36 2.46 2.56 2.66 2.86 3.01 3.16 3.31 3.56 3.81 4.11 4.41 4.76 5.21 5.76 6.21 7.26 8.36 9.91 12.16 18.81 21.76 24.66 30.31 30.26 30.36 16.41 12.71 10.16 8.96 7.26 6.41 5.66 5.16 4.66 4.41 4.36 4.76 4.76 4.76 4.81 2.86 2.66 2.61 2.46 2.36 2.26 2.16 2.06 1.96 1.86 1.84 1.84 1.89 1.89 1.89 1.94 1.94 1.99 2.04 2.04 2.09 2.09 2.14 2.14 2.19 2.24 2.24 2.29 2.39 2.39 2.46 2.51 2.46 2.31 2.26 2.36 2.36 2.41 2.46 2.51 2.61 3.16 3.31 6.96 4.61 50.00 50.00 6.21 6.16 6.06 6.01 5.96 5.91 6.01 5.91 5.86 5.81 5.76 5.71 5.71 5.71 5.56 3.31 5.56 5.51 5.51 5.51 5.51 2.96 6.46 6.36 4.41 6.31 -0.000602 0.012727 -1.570796 -0.000602 0.012727 -1.570796 70.920000 nohost 0.740301
ODOM -0.000602 0.012727 -1.570796 0.000000 0.000000 0.000000 70.989800 nohost 0.810101
FLASER 180 46.61 47.26 12.56 14.76 12.16 12.26 12.16 11.76 10.51 9.46 8.66 7.91 7.31 6.81 6.36 6.01 5.66 5.36 5.06 4.81 4.56 4.41 4.16 4.01 3.91 3.76 3.56 3.46 3.41 3.26 3.16 3.06 3.01 2.91 2.86 2.76 2.71 2.69 2.59 2.54 2.54 2.44 2.39 2.39 2.34 2.29 2.29 2.24 2.14 2.14 2.09 2.04 2.04 2.04 1.99 1.94 1.94 1.90 1.92 1.90 1.92 1.94 2.04 2.09 2.16 2.31 2.36 2.46 2.56 2.71 2.86 3.01 3.11 3.31 3.56 3.86 4.06 4.41 4.81 5.26 5.76 6.21 7.21 8.36 9.91 12.16 18.76 21.76 24.66 30.31 30.26 30.31 16.36 12.76 10.11 8.91 7.31 6.41 5.66 5.16 4.66 4.36 4.41 4.71 4.76 4.76 4.76 2.81 2.71 2.56 2.46 2.31 2.21 2.16 2.06 2.01 1.91 1.84 1.84 1.89 1.89 1.94 1.94 1.99 1.99 2.04 2.04 2.04 2.14 2.14 2.14 2.19 2.24 2.29 2.34 2.34 2.39 2.44 2.51 2.41 2.31 2.31 2.36 2.41 2.41 2.41 2.46 2.56 3.11 3.31 6.96 4.66 50.00 50.00 6.16 6.11 6.06 6.01 5.96 5.91 6.01 5.86 5.86 5.81 5.81 5.76 5.71 5.71 5.61 3.31 5.56 5.51 5.51 5.51 5.51 2.91 6.46 6.36 4.41 6.36 -0.000602 0.012727 -1.570796 -0.000602 0.012727 -1.570796 71.079899 nohost 0.900200
ODOM -0.000602 0.012727 -1.570796 0.000000 0.000000 0.000000 71.169499 nohost 0.989800
FLASER 180 46.56 47.31 12.51 14.71 12.16 12.26 12.21 11.76 10.51 9.46 8.61 7.91 7.26 6.81 6.36 6.01 5.66 5.36 5.06 4.81 4.61 4.36 4.16 4.01 3.86 3.76 3.61 3.51 3.36 3.26 3.16 3.06 2.96 2.86 2.81 2.76 2.71 2.64 2.64 2.59 2.49 2.44 2.44 2.39 2.34 2.29 2.24 2.19 2.19 2.14 2.09 2.09 2.04 1.99 1.99 1.99 1.94 1.94 1.92 1.90 1.92 1.99 2.09 2.09 2.11 2.26 2.36 2.46 2.56 2.71 2.81 2.96 3.16 3.31 3.51 3.81 4.06 4.41 4.81 5.26 5.76 6.26 7.21 8.36 9.91 12.11 18.76 21.76 24.61 30.31 30.31 30.36 16.41 12.71 10.11 8.86 7.31 6.41 5.66 5.16 4.66 4.36 4.41 4.71 4.71 4.76 4.81 2.86 2.71 2.56 2.41 2.31 2.21 2.11 2.06 2.01 1.91 1.84 1.89 1.89 1.89 1.89 1.94 1.94 1.99 2.04 2.04 2.09 2.09 2.09 2.19 2.19 2.24 2.24 2.29 2.34 2.44 2.44 2.51 2.46 2.31 2.31 2.36 2.36 2.46 2.41 2.51 2.56 3.16 3.31 6.91 4.56 50.00 50.00 6.21 6.16 6.11 6.01 5.96 5.91 6.01 5.86 5.81 5.81 5.76 5.71 5.71 5.71 5.56 3.31 5.56 5.51 5.56 5.51 5.56 2.91 6.51 6.36 4.46 6.36 -0.000602 0.012727 -1.570796 -0.000602 0.012727 -1.570796 71.240099 nohost 1.060400
ODOM -0.000602 0.012727 -1.570796 0.000000 0.000000 0.000000 71.289799 nohost 1.110100
FLASER 180 46.51 47.26 12.56 14.76 12.16 12.26 12.16 11.76 10.51 9.46 8.61 7.91 7.31 6.76 6.36 6.01 5.66 5.31 5.06 4.81 4.61 4.36 4.21 4.06 3.91 3.76 3.61 3.51 3.41 3.31 3.16 3.06 2.96 2.96 2.81 2.76 2.69 2.69 2.64 2.59 2.49 2.44 2.39 2.34 2.29 2.29 2.24 2.19 2.14 2.14 2.09 2.04 2.04 2.04 1.99 1.94 1.94 1.94 1.97 1.92 1.92 1.99 2.04 2.14 2.16 2.26 2.36 2.46 2.56 2.71 2.86 2.96 3.16 3.36 3.56 3.81 4.06 4.41 4.81 5.26 5.76 6.26 7.21 8.36 9.91 12.11 18.86 21.76 24.66 30.31 30.31 30.36 16.41 12.71 10.11 8.91 7.31 6.41 5.66 5.16 4.66 4.36 4.36 4.71 4.71 4.76 4.81 2.81 2.66 2.56 2.46 2.36 2.26 2.11 2.06 1.96 1.91 1.89 1.89 1.84 1.94 1.94 1.94 1.99 1.99 2.04 2.04 2.04 2.09 2.14 2.14 2.19 2.24 2.24 2.29 2.34 2.39 2.49 2.46 2.46 2.31 2.26 2.31 2.36 2.41 2.46 2.51 2.56 3.11 3.31 6.91 4.61 50.00 50.00 6.16 6.11 6.06 6.01 5.96 5.96 6.01 5.86 5.86 5.81 5.81 5.76 5.71 5.71 5.56 3.26 5.56 5.51 5.51 5.51 5.51 2.96 6.46 6.36 4.46 6.36 -0.000602 0.012727 -1.570796 -0.000602 0.012727 -1.570796 71.399600 nohost 1.219901
ODOM -0.000602 0.012727 -1.570796 0.000000 0.000000 0.000000 71.439800 nohost 1.260101
FLASER 180 46.51 47.31 12.51 14.81 12.16 12.31 12.21 11.71 10.51 9.46 8.61 7.91 7.31 6.81 6.31 5.96 5.66 5.36 5.06 4.81 4.61 4.41 4.21 4.01 3.86 3.71 3.61 3.51 3.36 3.31 3.16 3.11 3.01 2.91 2.86 2.81 2.74 2.69 2.61 2.54 2.49 2.49 2.39 2.34 2.34 2.29 2.19 2.19 2.14 2.14 2.09 2.09 2.09 2.04 1.99 1.99 1.94 1.89 1.97 1.92 1.92 1.94 2.04 2.14 2.21 2.31 2.36 2.46 2.56 2.71 2.81 3.01 3.16 3.31 3.56 3.81 4.11 4.41 4.76 5.26 5.76 6.26 7.21 8.36 9.91 12.11 18.76 21.76 24.66 30.36 30.31 30.31 16.41 12.76 10.11 8.91 7.31 6.41 5.71 5.16 4.66 4.41 4.36 4.71 4.76 4.76 4.81 2.81 2.71 2.61 2.46 2.31 2.21 2.16 2.09 1.96 1.91 1.84 1.84 1.84 1.89 1.94 1.94 1.99 1.99 2.04 2.04 2.09 2.14 2.14 2.19 2.19 2.24 2.29 2.29 2.39 2.39 2.39 2.46 2.46 2.36 2.31 2.36 2.36 2.41 2.46 2.51 2.51 3.16 3.31 6.96 4.61 50.00 50.00 6.16 6.16 6.06 6.01 5.96 5.91 6.01 5.86 5.86 5.81 5.76 5.76 5.76 5.76 5.61 3.31 5.56 5.56 5.56 5.51 5.51 2.91 6.46 6.36 4.46 6.36 -0.000602 0.012727 -1.570796 -0.000602 0.012727 -1.570796 71.559600 nohost 1.379901
ODOM -0.000602 0.012727 -1.570796 0.000000 0.000000 0.000000 71.599699 nohost 1.420000
FLASER 180 46.56 47.26 12.51 14.66 12.16 12.31 12.21 11.76 10.51 9.46 8.61 7.91 7.26 6.81 6.31 6.01 5.66 5.36 5.06 4.81 4.61 4.41 4.21 4.01 3.91 3.71 3.61 3.51 3.41 3.31 3.16 3.06 3.01 2.91 2.81 2.79 2.71 2.69 2.64 2.54 2.49 2.49 2.44 2.34 2.29 2.24 2.24 2.19 2.19 2.19 2.09 2.09 2.04 2.04 1.99 1.99 1.94 1.94 1.97 1.92 1.92 1.99 2.04 2.14 2.16 2.26 2.36 2.46 2.56 2.71 2.81 2.96 3.16 3.36 3.56 3.76 4.06 4.41 4.81 5.26 5.76 6.26 7.11 8.36 9.91 12.11 18.81 21.71 24.61 30.31 30.36 30.31 16.41 12.76 10.16 8.91 7.31 6.41 5.71 5.16 4.71 4.41 4.41 4.71 4.76 4.76 4.76 2.86 2.71 2.61 2.46 2.36 2.21 2.11 2.06 1.96 1.94 1.84 1.89 1.89 1.89 1.94 1.94 1.99 1.94 1.99 2.04 2.09 2.09 2.14 2.14 2.14 2.19 2.29 2.29 2.34 2.39 2.44 2.51 2.46 2.31 2.31 2.36 2.41 2.36 2.46 2.51 2.56 3.16 3.31 6.91 4.66 50.00 50.00 6.21 6.11 6.06 6.01 5.96 5.91 6.01 5.86 5.81 5.81 5.76 5.76 5.71 5.71 5.56 3.31 5.51 5.56 5.56 5.56 5.51 3.01 6.46 6.41 4.46 6.36 -0.000602 0.012727 -1.570796 -0.000602 0.012727 -1.570796 71.639600 nohost 1.459901
ODOM -0.000602 0.012727 -1.570796 0.000000 0.000000 0.000000 71.729600 nohost 1.549901
FLASER 180 46.51 47.26 12.56 14.71 12.11 12.31 12.16 11.76 10.51 9.46 8.61 7.91 7.31 6.81 6.36 6.01 5.66 5.31 5.06 4.81 4.61 4.41 4.26 4.06 3.86 3.76 3.61 3.51 3.41 3.26 3.16 3.11 3.01 2.91 2.86 2.81 2.74 2.69 2.64 2.59 2.49 2.44 2.44 2.34 2.29 2.29 2.24 2.24 2.19 2.14 2.09 2.09 2.04 1.99 1.99 1.99 1.94 1.89 1.92 1.90 1.87 1.99 2.04 2.11 2.21 2.26 2.36 2.46 2.61 2.71 2.86 2.96 3.11 3.31 3.51 3.81 4.11 4.41 4.76 5.26 5.76 6.21 7.26 8.36 9.91 12.11 18.76 21.71 24.66 30.31 30.31 30.31 16.41 12.71 10.16 8.91 7.31 6.41 5.66 5.11 4.66 4.36 4.41 4.71 4.71 4.76 4.76 2.81 2.71 2.51 2.46 2.31 2.26 2.11 2.06 1.96 1.91 1.84 1.84 1.89 1.89 1.89 1.94 1.94 1.99 1.99 2.04 2.09 2.14 2.09 2.14 2.19 2.24 2.29 2.29 2.34 2.39 2.49 2.46 2.46 2.31 2.26 2.31 2.36 2.36 2.46 2.51 2.56 3.16 3.31 6.96 4.56 50.00 50.00 6.21 6.11 6.06 6.01 6.01 5.91 6.01 5.86 5.81 5.81 5.81 5.71 5.71 5.71 5.56 3.31 5.51 5.51 5.51 5.51 5.56 2.96 6.46 6.41 4.41 6.36 -0.000602 0.012727 -1.570796 -0.000602 0.012727 -1.570796 71.799599 nohost 1.619900
ODOM -0.000602 0.012727 -1.570796 0.000000 0.000000 0.000000 71.839699 nohost 1.660000
FLASER 180 46.51 47.26 12.56 14.71 12.16 12.31 12.16 11.71 10.51 9.46 8.66 7.96 7.26 6.81 6.36 6.01 5.66 5.36 5.06 4.81 4.61 4.41 4.21 4.01 3.86 3.71 3.61 3.51 3.41 3.26 3.16 3.06 3.01 2.91 2.81 2.76 2.66 2.61 2.64 2.54 2.49 2.44 2.39 2.34 2.29 2.29 2.24 2.19 2.19 2.09 2.09 2.09 2.04 1.99 1.99 1.94 1.94 1.89 1.97 1.90 1.92 1.94 2.04 2.14 2.16 2.31 2.36 2.46 2.61 2.71 2.81 2.96 3.16 3.31 3.56 3.76 4.11 4.41 4.76 5.26 5.76 6.31 7.21 8.31 9.91 12.16 18.81 21.71 24.61 30.31 30.31 30.36 16.41 12.71 10.11 8.91 7.31 6.36 5.71 5.16 4.66 4.36 4.41 4.66 4.71 4.76 4.81 2.86 2.71 2.56 2.51 2.31 2.21 2.11 2.06 2.01 1.86 1.84 1.84 1.89 1.89 1.89 1.94 1.94 1.99 1.99 2.09 2.09 2.09 2.14 2.14 2.19 2.19 2.24 2.29 2.34 2.39 2.44 2.46 2.46 2.36 2.31 2.41 2.36 2.41 2.41 2.51 2.56 3.11 3.26 6.91 4.56 50.00 50.00 6.21 6.11 6.06 6.01 5.96 5.91 6.01 5.86 5.81 5.81 5.76 5.76 5.71 5.71 5.56 3.31 5.51 5.51 5.56 5.51 5.51 3.01 6.46 6.36 4.41 6.36 -0.000602 0.012727 -1.570796 -0.000602 0.012727 -1.570796 71.959999 nohost 1.780300
ODOM -0.000602 0.012727 -1.570796 0.000000 0.000000 0.000000 72.000000 nohost 1.820301
FLASER 180 46.51 47.26 12.56 14.71 12.16 12.26 12.21 11.76 10.56 9.46 8.61 7.86 7.26 6.81 6.36 5.96 5.66 5.31 5.06 4.81 4.61 4.36 4.21 4.06 3.86 3.71 3.61 3.51 3.36 3.31 3.21 3.11 2.96 2.86 2.86 2.76 2.74 2.64 2.59 2.54 2.54 2.44 2.44 2.39 2.29 2.24 2.24 2.19 2.19 2.14 2.14 2.09 2.04 2.04 1.99 1.99 1.94 1.94 1.97 1.90 1.92 1.99 2.09 2.11 2.16 2.26 2.36 2.46 2.56 2.66 2.81 3.01 3.16 3.36 3.56 3.81 4.06 4.41 4.81 5.21 5.76 6.26 7.16 8.31 9.91 12.16 18.76 21.76 24.61 30.31 30.36 30.31 16.41 12.71 10.16 8.91 7.26 6.41 5.66 5.11 4.66 4.36 4.36 4.71 4.71 4.76 4.76 2.86 2.71 2.56 2.46 2.31 2.21 2.16 2.01 2.01 1.91 1.84 1.84 1.89 1.89 1.94 1.94 1.94 1.94 1.99 2.04 2.09 2.14 2.14 2.14 2.19 2.19 2.24 2.29 2.34 2.39 2.44 2.46 2.41 2.31 2.31 2.36 2.41 2.36 2.46 2.51 2.56 3.16 3.31 6.91 4.61 50.00 50.00 6.21 6.11 6.06 6.01 5.96 5.91 6.01 5.86 5.81 5.81 5.81 5.76 5.71 5.71 5.61 3.26 5.51 5.51 5.51 5.56 5.51 2.96 6.46 6.36 4.41 6.36 -0.000602 0.012727 -1.570796 -0.000602 0.012727 -1.570796 72.121099 nohost 1.941400
ODOM -0.000602 0.012727 -1.570796 0.000000 0.000000 0.000000 72.149799 nohost 1.970100
FLASER 180 46.56 47.26 12.56 14.76 12.16 12.26 12.21 11.76 10.51 9.46 8.66 7.91 7.31 6.81 6.36 5.96 5.66 5.36 5.01 4.86 4.56 4.41 4.26 4.06 3.86 3.71 3.61 3.46 3.36 3.26 3.21 3.06 3.01 2.91 2.86 2.76 2.71 2.69 2.64 2.54 2.49 2.44 2.39 2.29 2.29 2.29 2.24 2.19 2.19 2.14 2.09 2.09 2.04 2.04 1.99 1.99 1.94 1.89 1.92 1.85 1.92 1.99 2.04 2.11 2.16 2.26 2.36 2.46 2.56 2.71 2.81 3.01 3.16 3.31 3.51 3.81 4.11 4.41 4.76 5.21 5.76 6.26 7.21 8.36 9.91 12.16 18.81 21.81 24.61 30.31 30.31 30.31 16.41 12.76 10.11 8.91 7.36 6.41 5.66 5.16 4.66 4.36 4.36 4.71 4.71 4.76 4.76 2.86 2.66 2.56 2.41 2.31 2.21 2.11 2.06 1.96 1.94 1.84 1.84 1.89 1.89 1.89 1.94 1.94 1.99 1.99 2.04 2.09 2.09 2.14 2.19 2.19 2.24 2.24 2.34 2.34 2.34 2.44 2.46 2.46 2.31 2.31 2.31 2.36 2.41 2.46 2.46 2.56 3.16 3.31 6.96 4.51 50.00 50.00 6.21 6.11 6.06 6.01 6.01 5.91 6.01 5.86 5.81 5.81 5.76 5.71 5.71 5.71 5.56 3.31 5.51 5.51 5.56 5.56 5.51 2.96 6.46 6.41 4.41 6.31 -0.000602 0.012727 -1.570796 -0.000602 0.012727 -1.570796 72.199899 nohost 2.020200
ODOM -0.000602 0.012727 -1.570796 0.000000 0.000000 0.000000 72.281199 nohost 2.101500
FLASER 180 46.51 47.31 12.51 14.76 12.16 12.26 12.21 11.76 10.51 9.41 8.61 7.91 7.31 6.76 6.36 6.01 5.66 5.36 5.06 4.86 4.56 4.41 4.21 4.01 3.86 3.71 3.61 3.51 3.36 3.26 3.21 3.06 3.01 2.91 2.81 2.76 2.74 2.69 2.59 2.59 2.54 2.44 2.39 2.34 2.29 2.29 2.24 2.19 2.14 2.14 2.09 2.09 2.04 1.99 1.99 1.99 1.94 1.89 1.92 1.90 1.92 1.99 2.09 2.11 2.16 2.26 2.36 2.46 2.56 2.71 2.86 2.96 3.16 3.31 3.56 3.81 4.06 4.41 4.76 5.26 5.76 6.21 7.21 8.36 9.96 12.16 18.76 21.71 24.66 30.31 30.31 30.36 16.41 12.71 10.11 8.96 7.31 6.41 5.66 5.16 4.66 4.36 4.41 4.71 4.71 4.76 4.76 2.86 2.71 2.56 2.46 2.31 2.26 2.16 2.06 2.01 1.89 1.89 1.84 1.89 1.89 1.94 1.94 1.94 2.04 1.99 2.04 2.09 2.09 2.14 2.14 2.19 2.24 2.24 2.29 2.34 2.34 2.44 2.46 2.41 2.31 2.31 2.36 2.36 2.41 2.46 2.46 2.61 3.16 3.31 6.91 4.56 50.00 50.00 6.21 6.11 6.06 6.01 5.96 5.91 6.01 5.86 5.81 5.76 5.76 5.76 5.71 5.71 5.56 3.31 5.56 5.51 5.56 5.51 5.51 2.96 6.51 6.41 4.46 6.32 -0.000602 0.012727 -1.570796 -0.000602 0.012727 -1.570796 72.439599 nohost 2.259900
ODOM -0.000602 0.012727 -1.570796 0.000000 0.000000 0.000000 72.459800 nohost 2.280101
FLASER 180 46.61 47.26 12.51 14.71 12.16 12.26 12.21 11.71 10.46 9.46 8.66 7.91 7.31 6.81 6.36 5.96 5.61 5.36 5.06 4.81 4.56 4.41 4.21 4.06 3.86 3.76 3.66 3.46 3.41 3.26 3.16 3.11 3.01 2.91 2.86 2.76 2.71 2.64 2.59 2.54 2.54 2.44 2.39 2.34 2.34 2.29 2.24 2.14 2.14 2.14 2.09 2.09 2.09 1.99 1.99 1.94 1.94 1.89 1.97 1.90 1.92 1.94 2.09 2.14 2.21 2.26 2.36 2.46 2.51 2.66 2.86 2.96 3.16 3.36 3.56 3.81 4.06 4.36 4.76 5.26 5.76 6.21 7.21 8.36 9.91 12.11 18.76 21.76 24.61 30.36 30.31 30.31 16.41 12.71 10.11 8.96 7.31 6.41 5.66 5.16 4.66 4.36 4.41 4.71 4.71 4.76 4.81 2.86 2.66 2.56 2.46 2.31 2.21 2.11 2.06 2.01 1.94 1.84 1.84 1.84 1.89 1.94 1.94 1.94 1.99 1.99 1.99 2.04 2.09 2.14 2.14 2.19 2.24 2.29 2.29 2.34 2.39 2.39 2.51 2.46 2.36 2.31 2.36 2.36 2.41 2.41 2.51 2.56 3.16 3.31 6.91 4.56 50.00 50.00 6.21 6.16 6.06 6.06 5.96 5.96 6.01 5.86 5.81 5.76 5.81 5.76 5.71 5.71 5.61 3.31 5.51 5.56 5.56 5.51 5.51 3.01 6.51 6.36 4.41 6.31 -0.000602 0.012727 -1.570796 -0.000602 0.012727 -1.570796 72.521299 nohost 2.341600
ODOM -0.000602 0.012727 -1.570796 0.000000 0.000000 0.000000 72.569599 nohost 2.389900
FLASER 180 46.56 47.31 12.56 14.76 12.16 12.26 12.21 11.76 10.51 9.46 8.61 7.91 7.26 6.81 6.31 6.01 5.61 5.36 5.06 4.81 4.61 4.36 4.21 4.06 3.91 3.76 3.61 3.46 3.36 3.31 3.16 3.06 3.01 2.91 2.86 2.76 2.71 2.69 2.59 2.54 2.49 2.44 2.39 2.34 2.29 2.29 2.24 2.24 2.19 2.14 2.09 2.09 2.04 1.99 1.99 1.94 1.94 1.95 1.92 1.90 1.92 1.99 2.09 2.11 2.16 2.26 2.36 2.46 2.51 2.66 2.86 3.01 3.16 3.36 3.56 3.81 4.11 4.41 4.81 5.21 5.76 6.26 7.16 8.36 9.91 12.11 18.76 21.76 24.66 30.26 30.31 30.31 16.41 12.71 10.11 8.86 7.31 6.41 5.71 5.16 4.66 4.41 4.41 4.71 4.76 4.76 4.81 2.81 2.71 2.56 2.46 2.36 2.21 2.16 2.06 2.01 1.86 1.89 1.89 1.89 1.94 1.94 1.94 1.99 1.99 2.04 2.09 2.04 2.09 2.14 2.14 2.19 2.24 2.29 2.29 2.34 2.39 2.44 2.46 2.41 2.31 2.31 2.36 2.36 2.41 2.46 2.51 2.61 3.11 3.31 6.91 4.56 50.00 50.00 6.21 6.11 6.11 6.06 5.96 5.91 5.96 5.86 5.86 5.81 5.76 5.71 5.76 5.71 5.61 3.31 5.51 5.56 5.51 5.51 5.51 2.96 6.46 6.36 4.46 6.36 -0.000602 0.012727 -1.570796 -0.000602 0.012727 -1.570796 72.679900 nohost 2.500201
ODOM -0.000602 0.012727 -1.570796 0.000000 0.000000 0.000000 72.729799 nohost 2.550100
FLASER 180 46.52 47.27 12.52 14.77 12.17 12.27 12.22 11.77 10.57 9.47 8.67 7.97 7.27 6.82 6.37 5.97 5.67 5.32 5.07 4.82 4.57 4.37 4.22 4.07 3.92 3.77 3.62 3.52 3.37 3.27 3.17 3.07 3.02 2.92 2.87 2.77 2.72 2.65 2.60 2.55 2.50 2.45 2.40 2.35 2.30 2.30 2.25 2.25 2.15 2.15 2.10 2.10 2.05 2.00 1.95 2.00 1.95 1.95 1.93 1.91 1.88 2.00 2.05 2.15 2.20 2.27 2.37 2.47 2.57 2.67 2.87 3.02 3.12 3.37 3.57 3.82 4.12 4.42 4.82 5.22 5.77 6.22 7.17 8.37 9.97 12.17 18.77 21.72 24.62 30.32 30.32 30.32 16.42 12.77 10.12 8.97 7.32 6.42 5.67 5.17 4.67 4.37 4.42 4.77 4.72 4.77 4.77 2.87 2.72 2.57 2.47 2.37 2.22 2.12 2.07 2.02 1.92 1.90 1.90 1.90 1.90 1.95 2.00 2.00 2.00 2.00 2.05 2.05 2.10 2.15 2.15 2.20 2.25 2.30 2.30 2.35 2.40 2.45 2.47 2.47 2.37 2.32 2.37 2.37 2.37 2.42 2.52 2.57 3.17 3.27 6.97 4.57 50.00 50.00 6.17 6.12 6.07 6.02 5.97 5.92 6.02 5.87 5.82 5.82 5.77 5.77 5.72 5.72 5.62 3.32 5.57 5.52 5.52 5.52 5.52 3.02 6.47 6.37 4.47 6.37 -0.000602 0.012727 -1.570796 -0.000602 0.012727 -1.570796 72.801199 nohost 2.621500
ODOM -0.000602 0.012727 -1.570796 0.000000 0.000000 0.000000 72.859600 nohost 2.679901
FLASER 180 46.57 47.27 12.57 14.82 12.12 12.32 12.22 11.77 10.52 9.47 8.62 7.92 7.27 6.82 6.37 6.02 5.67 5.37 5.07 4.82 4.62 4.42 4.22 4.02 3.92 3.77 3.62 3.52 3.37 3.27 3.17 3.07 2.97 2.92 2.87 2.77 2.72 2.65 2.65 2.55 2.50 2.45 2.40 2.35 2.35 2.30 2.25 2.20 2.20 2.15 2.10 2.10 2.05 2.00 2.00 1.95 1.95 1.90 1.93 1.93 1.93 1.95 2.05 2.10 2.20 2.32 2.37 2.47 2.57 2.72 2.77 2.97 3.17 3.37 3.52 3.77 4.12 4.42 4.77 5.27 5.77 6.22 7.27 8.37 9.92 12.12 18.77 21.72 24.67 30.32 30.32 30.37 16.42 12.77 10.12 8.92 7.32 6.42 5.67 5.17 4.67 4.42 4.42 4.72 4.77 4.77 4.82 2.87 2.72 2.57 2.47 2.37 2.22 2.12 2.07 1.97 1.92 1.90 1.85 1.85 1.90 1.90 1.95 2.00 2.00 2.00 2.05 2.10 2.10 2.15 2.15 2.20 2.25 2.25 2.35 2.35 2.40 2.45 2.47 2.42 2.32 2.32 2.37 2.37 2.37 2.47 2.52 2.62 3.17 3.32 6.92 4.62 50.00 50.00 6.22 6.12 6.07 6.02 5.97 5.92 6.02 5.87 5.82 5.82 5.77 5.77 5.72 5.72 5.57 3.32 5.57 5.57 5.52 5.57 5.52 2.92 6.47 6.37 4.47 6.37 -0.000602 0.012727 -1.570796 -0.000602 0.012727 -1.570796 72.880300 nohost 2.700601
ODOM -0.000602 0.012727 -1.570796 0.000000 0.000000 0.000000 73.019499 nohost 2.839800
FLASER 180 46.51 47.36 12.56 14.71 12.11 12.26 12.16 11.71 10.56 9.46 8.61 7.91 7.26 6.81 6.36 6.01 5.66 5.36 5.06 4.81 4.61 4.36 4.21 4.06 3.91 3.76 3.61 3.51 3.41 3.31 3.16 3.06 3.01 2.91 2.81 2.76 2.66 2.64 2.64 2.54 2.44 2.49 2.39 2.34 2.34 2.24 2.24 2.19 2.14 2.14 2.09 2.09 2.04 2.04 1.99 1.99 1.94 1.94 1.97 1.90 1.92 1.94 2.09 2.14 2.19 2.26 2.41 2.46 2.56 2.71 2.81 2.96 3.11 3.31 3.56 3.81 4.06 4.36 4.81 5.26 5.76 6.21 7.21 8.36 9.91 12.16 18.81 21.71 24.66 30.31 30.31 30.31 16.41 12.76 10.16 8.91 7.31 6.41 5.66 5.11 4.66 4.41 4.36 4.71 4.71 4.76 4.81 2.86 2.66 2.56 2.41 2.31 2.21 2.11 2.06 2.01 1.91 1.89 1.89 1.84 1.94 1.94 1.94 1.99 1.99 2.04 2.04 2.09 2.14 2.14 2.14 2.19 2.24 2.24 2.29 2.34 2.39 2.39 2.46 2.41 2.31 2.31 2.36 2.36 2.41 2.41 2.51 2.56 3.11 3.31 6.96 4.66 50.00 50.00 6.16 6.11 6.11 6.01 5.96 5.96 6.01 5.86 5.81 5.81 5.76 5.76 5.71 5.71 5.56 3.31 5.51 5.51 5.51 5.56 5.51 2.91 6.46 6.41 4.41 6.36 -0.000602 0.012727 -1.570796 -0.000602 0.012727 -1.570796 73.121300 nohost 2.941601
ODOM -0.000602 0.012727 -1.570796 0.000000 0.000000 0.000000 73.139499 nohost 2.959800
FLASER 180 46.51 47.31 12.56 14.71 12.16 12.26 12.16 11.76 10.56 9.46 8.61 7.91 7.31 6.81 6.36 5.96 5.66 5.36 5.06 4.81 4.56 4.41 4.21 4.06 3.91 3.71 3.61 3.51 3.36 3.21 3.16 3.11 3.01 2.91 2.86 2.81 2.74 2.69 2.59 2.59 2.49 2.44 2.39 2.34 2.29 2.29 2.29 2.19 2.14 2.14 2.09 2.09 2.04 2.04 1.99 1.94 1.94 1.89 1.97 1.90 1.97 1.94 2.04 2.14 2.16 2.26 2.41 2.46 2.56 2.71 2.81 3.01 3.16 3.31 3.56 3.76 4.06 4.41 4.81 5.26 5.76 6.26 7.21 8.36 9.91 12.11 18.76 21.71 24.61 30.31 30.31 30.31 16.41 12.71 10.11 8.91 7.31 6.41 5.71 5.16 4.66 4.36 4.41 4.71 4.76 4.76 4.81 2.86 2.71 2.56 2.46 2.36 2.26 2.16 2.06 2.01 1.89 1.84 1.89 1.89 1.89 1.89 1.89 1.94 1.99 1.99 2.04 2.04 2.09 2.14 2.19 2.19 2.24 2.24 2.29 2.39 2.39 2.44 2.51 2.46 2.31 2.31 2.36 2.36 2.41 2.41 2.46 2.61 3.16 3.26 6.96 4.61 50.00 50.00 6.16 6.11 6.11 6.01 5.96 5.96 5.96 5.86 5.81 5.81 5.76 5.76 5.76 5.71 5.56 3.26 5.56 5.51 5.56 5.56 5.56 2.96 6.51 6.36 4.46 6.31 -0.000602 0.012727 -1.570796 -0.000602 0.012727 -1.570796 73.239900 nohost 3.060201
ODOM -0.000602 0.012727 -1.570796 0.000000 0.000000 0.000000 73.270600 nohost 3.090901
FLASER 180 46.57 47.22 12.52 14.77 12.17 12.27 12.17 11.77 10.52 9.47 8.62 7.87 7.32 6.77 6.37 6.02 5.62 5.37 5.07 4.82 4.62 4.37 4.22 4.02 3.87 3.77 3.62 3.52 3.37 3.27 3.17 3.07 3.02 2.97 2.87 2.82 2.72 2.65 2.60 2.60 2.50 2.50 2.40 2.40 2.35 2.30 2.25 2.25 2.20 2.15 2.10 2.05 2.05 2.05 2.00 1.95 1.95 1.95 1.93 1.91 1.93 2.00 2.05 2.10 2.22 2.32 2.37 2.47 2.57 2.72 2.87 3.02 3.12 3.32 3.57 3.82 4.07 4.37 4.82 5.27 5.77 6.27 7.22 8.32 9.92 12.12 18.77 21.77 24.67 30.32 30.32 30.32 16.42 12.72 10.12 8.92 7.32 6.37 5.72 5.17 4.67 4.37 4.42 4.72 4.72 4.77 4.77 2.87 2.72 2.57 2.47 2.37 2.17 2.12 2.02 1.97 1.92 1.85 1.85 1.90 1.90 1.95 1.95 1.95 2.00 2.05 2.05 2.05 2.10 2.15 2.15 2.20 2.20 2.30 2.30 2.35 2.40 2.45 2.47 2.47 2.32 2.32 2.37 2.37 2.37 2.47 2.52 2.57 3.12 3.32 6.97 4.57 50.00 50.00 6.22 6.17 6.07 6.02 5.97 5.92 6.02 5.87 5.82 5.82 5.77 5.77 5.72 5.72 5.62 3.32 5.57 5.57 5.57 5.52 5.52 2.97 6.47 6.37 4.42 6.32 -0.000602 0.012727 -1.570796 -0.000602 0.012727 -1.570796 73.359800 nohost 3.180101
ODOM -0.000602 0.012727 -1.570796 0.000000 0.000000 0.000000 73.439599 nohost 3.259900
FLASER 180 46.56 47.26 12.56 14.71 12.16 12.31 12.21 11.76 10.51 9.46 8.66 7.86 7.26 6.81 6.36 5.96 5.66 5.31 5.06 4.81 4.61 4.41 4.21 4.06 3.86 3.76 3.61 3.46 3.36 3.26 3.16 3.06 2.96 2.91 2.86 2.76 2.71 2.64 2.59 2.54 2.49 2.44 2.39 2.34 2.29 2.29 2.24 2.19 2.19 2.14 2.09 2.09 2.04 1.99 1.94 1.94 1.94 1.90 1.92 1.90 1.87 1.99 2.04 2.14 2.21 2.26 2.36 2.46 2.56 2.71 2.81 2.96 3.16 3.36 3.51 3.81 4.06 4.46 4.76 5.26 5.76 6.26 7.26 8.31 9.91 12.11 18.81 21.71 24.61 30.31 30.31 30.31 16.36 12.76 10.11 8.91 7.31 6.41 5.66 5.16 4.66 4.36 4.41 4.71 4.76 4.76 4.76 2.86 2.76 2.56 2.46 2.36 2.21 2.16 2.01 1.99 1.86 1.89 1.89 1.84 1.89 1.94 1.94 1.99 1.99 1.99 2.04 2.09 2.09 2.14 2.14 2.19 2.24 2.29 2.29 2.39 2.39 2.46 2.46 2.41 2.36 2.31 2.36 2.36 2.41 2.46 2.51 2.56 3.11 3.31 6.96 4.56 50.00 50.00 6.16 6.16 6.06 6.01 5.96 5.96 5.96 5.86 5.81 5.76 5.76 5.76 5.71 5.71 5.61 3.31 5.51 5.56 5.56 5.51 5.56 3.01 6.46 6.41 4.41 6.36 -0.000602 0.012727 -1.570796 -0.000602 0.012727 -1.570796 73.479600 nohost 3.299901
ODOM -0.000602 0.012727 -1.570796 0.000000 0.000000 0.000000 73.569599 nohost 3.389900
FLASER 180 46.52 47.27 12.52 14.72 12.17 12.27 12.17 11.77 10.52 9.47 8.67 7.92 7.27 6.82 6.37 6.02 5.67 5.37 5.07 4.82 4.57 4.42 4.22 4.02 3.92 3.72 3.62 3.47 3.37 3.27 3.22 3.12 3.02 2.92 2.82 2.82 2.72 2.70 2.65 2.60 2.50 2.45 2.40 2.35 2.30 2.30 2.25 2.20 2.15 2.15 2.10 2.05 2.05 2.05 2.00 2.00 1.95 1.95 1.93 1.91 1.93 2.00 2.05 2.15 2.22 2.32 2.37 2.47 2.57 2.72 2.82 3.02 3.17 3.32 3.57 3.82 4.07 4.37 4.82 5.22 5.72 6.27 7.22 8.32 9.92 12.17 18.77 21.77 24.67 30.32 30.32 30.32 16.42 12.72 10.17 8.92 7.32 6.42 5.67 5.17 4.67 4.42 4.37 4.72 4.72 4.77 4.77 2.87 2.72 2.62 2.47 2.32 2.22 2.17 2.07 2.02 1.95 1.85 1.85 1.90 1.90 1.90 1.90 2.00 2.00 2.00 2.05 2.10 2.10 2.15 2.20 2.20 2.25 2.25 2.30 2.35 2.40 2.45 2.47 2.47 2.37 2.32 2.37 2.37 2.42 2.47 2.52 2.57 3.17 3.32 6.97 4.57 50.00 50.00 6.22 6.12 6.07 6.07 5.97 5.97 6.02 5.87 5.82 5.82 5.77 5.77 5.72 5.72 5.57 3.32 5.57 5.52 5.52 5.52 5.52 3.02 6.47 6.37 4.47 6.32 -0.000602 0.012727 -1.570796 -0.000602 0.012727 -1.570796 73.721500 nohost 3.541801
ODOM -0.000602 0.012727 -1.570796 0.000000 0.000000 0.000000 73.739599 nohost 3.559900
FLASER 180 46.52 47.32 12.52 14.72 12.17 12.27 12.17 11.82 10.52 9.47 8.62 7.92 7.32 6.82 6.37 6.02 5.67 5.32 5.07 4.82 4.62 4.42 4.22 4.07 3.92 3.77 3.62 3.52 3.42 3.27 3.22 3.12 3.02 2.92 2.82 2.77 2.75 2.65 2.65 2.55 2.50 2.50 2.45 2.35 2.35 2.25 2.25 2.20 2.20 2.15 2.10 2.10 2.05 2.05 2.00 2.00 1.95 1.90 1.93 1.91 1.93 2.00 2.05 2.15 2.17 2.27 2.37 2.47 2.57 2.67 2.87 2.97 3.17 3.37 3.57 3.82 4.12 4.47 4.82 5.27 5.77 6.27 7.22 8.37 9.97 12.17 18.77 21.72 24.67 30.32 30.32 30.32 16.42 12.77 10.17 8.92 7.27 6.42 5.72 5.17 4.67 4.32 4.37 4.72 4.77 4.77 4.77 2.87 2.67 2.57 2.42 2.32 2.22 2.17 2.07 1.97 1.92 1.85 1.85 1.85 1.90 1.95 2.00 1.95 2.00 2.00 2.10 2.05 2.10 2.15 2.15 2.25 2.25 2.25 2.30 2.35 2.40 2.45 2.47 2.47 2.32 2.32 2.37 2.42 2.42 2.42 2.52 2.57 3.17 3.27 6.92 4.62 50.00 50.00 6.17 6.12 6.07 6.02 5.97 5.97 6.02 5.82 5.82 5.82 5.77 5.77 5.72 5.72 5.57 3.32 5.57 5.52 5.52 5.52 5.52 2.97 6.47 6.37 4.42 6.37 -0.000602 0.012727 -1.570796 -0.000602 0.012727 -1.570796 73.831299 nohost 3.651600
ODOM -0.000602 0.012727 -1.570796 0.000000 0.000000 0.000000 73.869900 nohost 3.690201
FLASER 180 46.57 47.27 12.52 14.77 12.17 12.32 12.22 11.77 10.57 9.47 8.67 7.92 7.32 6.82 6.37 5.97 5.67 5.32 5.07 4.82 4.62 4.42 4.22 4.12 3.92 3.72 3.62 3.52 3.42 3.27 3.17 3.12 2.97 2.92 2.87 2.82 2.75 2.65 2.60 2.60 2.50 2.45 2.40 2.40 2.35 2.30 2.25 2.20 2.20 2.15 2.15 2.05 2.05 2.05 2.05 2.00 1.95 1.90 1.98 1.91 1.93 2.00 2.05 2.12 2.22 2.27 2.37 2.47 2.57 2.67 2.87 2.97 3.12 3.32 3.62 3.82 4.12 4.42 4.82 5.27 5.77 6.22 7.27 8.37 9.87 12.17 18.77 21.77 24.62 30.32 30.32 30.32 16.42 12.77 10.12 8.97 7.32 6.42 5.67 5.12 4.72 4.42 4.42 4.72 4.72 4.77 4.82 2.87 2.72 2.57 2.42 2.32 2.27 2.17 2.02 1.97 1.95 1.85 1.85 1.90 1.90 1.90 1.95 2.00 2.00 2.05 2.05 2.10 2.10 2.10 2.15 2.25 2.25 2.25 2.30 2.40 2.40 2.45 2.47 2.47 2.37 2.27 2.37 2.42 2.42 2.42 2.52 2.57 3.12 3.32 6.92 4.62 50.00 50.00 6.22 6.17 6.07 6.02 6.02 5.97 5.97 5.87 5.87 5.82 5.77 5.77 5.72 5.72 5.62 3.32 5.57 5.57 5.52 5.52 5.52 2.97 6.47 6.42 4.47 6.37 -0.000602 0.012727 -1.570796 -0.000602 0.012727 -1.570796 73.990200 nohost 3.810501
ODOM -0.000602 0.012727 -1.570796 0.000000 0.000000 0.000000 74.069800 nohost 3.890101
FLASER 180 46.57 47.27 12.52 14.77 12.17 12.32 12.17 11.77 10.52 9.47 8.62 7.92 7.32 6.87 6.32 6.02 5.67 5.37 5.02 4.82 4.57 4.42 4.22 4.07 3.87 3.77 3.62 3.52 3.37 3.27 3.22 3.12 2.97 2.92 2.87 2.77 2.72 2.65 2.60 2.55 2.50 2.45 2.45 2.35 2.30 2.25 2.25 2.20 2.20 2.15 2.10 2.05 2.05 2.05 2.00 1.95 1.95 1.95 1.93 1.91 1.93 2.00 2.05 2.12 2.17 2.32 2.37 2.47 2.62 2.72 2.82 2.97 3.22 3.32 3.57 3.82 4.07 4.42 4.77 5.27 5.77 6.22 7.17 8.37 9.92 12.12 18.77 21.77 24.62 30.32 30.32 30.32 16.42 12.77 10.12 8.97 7.32 6.42 5.72 5.17 4.67 4.37 4.42 4.72 4.72 4.77 4.82 2.87 2.67 2.57 2.42 2.32 2.22 2.17 2.07 1.97 1.95 1.85 1.85 1.90 1.90 1.90 1.95 1.95 2.00 2.00 2.05 2.05 2.10 2.15 2.20 2.20 2.20 2.30 2.35 2.35 2.40 2.45 2.47 2.47 2.32 2.32 2.32 2.37 2.42 2.42 2.47 2.57 3.12 3.27 6.97 4.57 50.00 50.00 6.22 6.12 6.07 6.07 5.97 5.92 5.97 5.87 5.87 5.82 5.77 5.77 5.72 5.72 5.62 3.32 5.52 5.57 5.57 5.52 5.57 2.97 6.47 6.37 4.47 6.37 -0.000602 0.012727 -1.570796 -0.000602 0.012727 -1.570796 74.150199 nohost 3.970500
ODOM -0.000602 0.012727 -1.570796 0.000000 0.000000 0.000000 74.199600 nohost 4.019901
FLASER 180 46.57 47.27 12.57 14.72 12.17 12.27 12.17 11.72 10.57 9.47 8.67 7.97 7.32 6.82 6.32 6.02 5.67 5.32 5.07 4.82 4.62 4.37 4.22 4.07 3.92 3.77 3.67 3.47 3.42 3.27 3.17 3.07 3.02 2.97 2.82 2.77 2.75 2.62 2.65 2.55 2.55 2.45 2.40 2.40 2.30 2.30 2.25 2.20 2.15 2.15 2.10 2.05 2.05 2.05 2.00 1.95 1.95 1.95 1.98 1.91 1.93 2.00 2.10 2.15 2.17 2.27 2.37 2.47 2.62 2.72 2.87 2.97 3.17 3.37 3.57 3.82 4.07 4.37 4.82 5.27 5.77 6.27 7.22 8.37 9.92 12.17 18.72 21.77 24.62 30.32 30.32 30.32 16.37 12.77 10.12 8.87 7.27 6.42 5.67 5.17 4.67 4.37 4.42 4.77 4.72 4.77 4.77 2.87 2.72 2.62 2.42 2.37 2.27 2.12 2.07 1.97 1.92 1.85 1.85 1.90 1.95 1.95 1.95 1.95 2.00 2.05 2.05 2.10 2.10 2.15 2.15 2.20 2.25 2.30 2.30 2.35 2.35 2.45 2.47 2.42 2.32 2.32 2.37 2.42 2.42 2.47 2.52 2.57 3.12 3.27 6.97 4.57 50.00 50.00 6.22 6.12 6.12 6.02 6.02 5.92 5.97 5.87 5.82 5.82 5.82 5.77 5.72 5.72 5.62 3.32 5.57 5.57 5.52 5.52 5.52 2.97 6.47 6.37 4.47 6.32 -0.000602 0.012727 -1.570796 -0.000602 0.012727 -1.570796 74.310500 nohost 4.130801
ODOM -0.000602 0.012727 -1.570796 0.000000 0.000000 0.000000 74.369600 nohost 4.189901
FLASER 180 46.51 47.31 12.56 14.71 12.16 12.31 12.21 11.76 10.51 9.46 8.61 7.91 7.31 6.81 6.31 5.96 5.66 5.31 5.01 4.81 4.56 4.41 4.16 4.01 3.86 3.71 3.61 3.51 3.41 3.26 3.16 3.11 3.01 2.91 2.86 2.76 2.74 2.69 2.59 2.49 2.54 2.44 2.44 2.34 2.29 2.24 2.24 2.19 2.14 2.14 2.09 2.09 2.04 2.04 1.99 1.99 1.94 1.94 1.92 1.90 1.92 1.99 2.04 2.09 2.16 2.26 2.36 2.46 2.56 2.71 2.81 2.96 3.16 3.36 3.56 3.76 4.11 4.46 4.76 5.26 5.81 6.26 7.26 8.36 9.91 12.11 18.76 21.81 24.66 30.31 30.31 30.31 16.41 12.76 10.11 8.91 7.31 6.36 5.66 5.16 4.66 4.36 4.36 4.71 4.76 4.76 4.76 2.81 2.66 2.51 2.46 2.31 2.21 2.16 2.06 1.96 1.91 1.89 1.84 1.89 1.89 1.89 1.94 1.94 1.99 1.99 1.99 2.04 2.14 2.09 2.19 2.19 2.24 2.29 2.29 2.34 2.34 2.39 2.46 2.46 2.36 2.31 2.36 2.36 2.41 2.46 2.46 2.56 3.11 3.26 6.96 4.61 50.00 50.00 6.21 6.11 6.06 6.01 5.96 5.91 5.96 5.86 5.86 5.81 5.76 5.76 5.71 5.71 5.56 3.31 5.56 5.56 5.51 5.51 5.56 2.96 6.46 6.41 4.46 6.31 -0.000602 0.012727 -1.570796 -0.000602 0.012727 -1.570796 74.469599 nohost 4.289900
ODOM -0.000602 0.012727 -1.570796 0.000000 0.000000 0.000000 74.499700 nohost 4.320001
FLASER 180 46.51 47.31 12.56 14.71 12.16 12.26 12.21 11.71 10.51 9.46 8.66 7.91 7.26 6.81 6.36 6.01 5.66 5.31 5.06 4.81 4.56 4.36 4.21 4.06 3.91 3.76 3.61 3.46 3.36 3.26 3.16 3.11 3.01 2.91 2.86 2.81 2.71 2.69 2.59 2.59 2.49 2.44 2.44 2.34 2.29 2.29 2.24 2.19 2.19 2.09 2.09 2.09 2.04 1.99 2.04 1.94 1.94 1.94 1.92 1.90 1.92 1.94 2.06 2.14 2.16 2.26 2.41 2.41 2.56 2.66 2.81 3.01 3.16 3.36 3.56 3.81 4.11 4.41 4.76 5.21 5.76 6.26 7.21 8.36 9.96 12.11 18.76 21.76 24.66 30.26 30.31 30.31 16.41 12.76 10.16 8.91 7.31 6.41 5.71 5.16 4.66 4.41 4.41 4.66 4.76 4.76 4.76 2.86 2.71 2.56 2.41 2.31 2.21 2.16 2.06 2.01 1.89 1.84 1.84 1.84 1.89 1.94 1.99 1.94 1.94 1.99 2.09 2.09 2.09 2.14 2.19 2.19 2.24 2.29 2.29 2.34 2.39 2.44 2.51 2.46 2.31 2.31 2.31 2.36 2.41 2.41 2.51 2.51 3.16 3.26 6.91 4.61 50.00 50.00 6.21 6.16 6.06 6.01 5.96 5.96 6.01 5.86 5.81 5.81 5.76 5.76 5.71 5.71 5.56 3.31 5.56 5.56 5.56 5.56 5.51 2.96 6.46 6.41 4.46 6.36 -0.000602 0.012727 -1.570796 -0.000602 0.012727 -1.570796 74.550399 nohost 4.370700
ODOM -0.000602 0.012727 -1.570796 0.000000 0.000000 0.000000 74.632000 nohost 4.452301
FLASER 180 46.51 47.21 12.51 14.71 12.11 12.26 12.21 11.76 10.51 9.46 8.61 7.91 7.31 6.81 6.36 6.01 5.66 5.31 5.06 4.86 4.56 4.36 4.21 4.06 3.91 3.71 3.61 3.46 3.36 3.31 3.16 3.06 3.01 2.91 2.81 2.79 2.69 2.64 2.59 2.54 2.54 2.44 2.44 2.34 2.29 2.29 2.24 2.19 2.14 2.09 2.09 2.04 2.04 2.04 1.99 1.99 1.94 1.94 1.92 1.90 1.87 1.99 2.04 2.09 2.21 2.26 2.36 2.46 2.56 2.71 2.81 3.01 3.16 3.36 3.56 3.81 4.06 4.46 4.76 5.21 5.76 6.26 7.21 8.31 9.91 12.11 18.76 21.71 24.66 30.36 30.31 30.31 16.46 12.71 10.11 8.96 7.31 6.36 5.66 5.21 4.61 4.41 4.41 4.71 4.71 4.76 4.81 2.86 2.71 2.56 2.41 2.31 2.21 2.16 2.06 1.96 1.94 1.89 1.84 1.84 1.89 1.94 1.99 1.94 1.94 2.04 2.09 2.09 2.09 2.14 2.14 2.19 2.24 2.24 2.29 2.34 2.44 2.39 2.46 2.41 2.36 2.31 2.36 2.36 2.41 2.46 2.51 2.61 3.16 3.31 6.96 4.56 50.00 50.00 6.16 6.11 6.06 6.01 5.96 5.91 5.96 5.86 5.81 5.81 5.76 5.76 5.71 5.71 5.61 3.31 5.56 5.56 5.51 5.51 5.56 2.96 6.46 6.41 4.46 6.36 -0.000602 0.012727 -1.570796 -0.000602 0.012727 -1.570796 74.710200 nohost 4.530501
ODOM -0.000602 0.012727 -1.570796 0.000000 0.000000 0.000000 74.759600 nohost 4.579901
FLASER 180 46.51 47.26 12.56 14.71 12.16 12.26 12.16 11.81 10.51 9.46 8.61 7.96 7.31 6.81 6.36 6.01 5.66 5.31 5.11 4.81 4.56 4.41 4.16 4.06 3.91 3.76 3.61 3.51 3.41 3.31 3.16 3.06 3.01 2.91 2.81 2.76 2.71 2.69 2.59 2.54 2.49 2.44 2.44 2.34 2.29 2.29 2.24 2.19 2.19 2.14 2.09 2.04 2.04 1.99 1.94 1.94 1.94 1.89 1.92 1.90 1.92 1.99 2.04 2.14 2.21 2.26 2.36 2.46 2.56 2.71 2.86 2.96 3.11 3.36 3.61 3.86 4.11 4.41 4.76 5.26 5.76 6.21 7.26 8.36 9.86 12.16 18.76 21.76 24.66 30.26 30.31 30.31 16.41 12.71 10.11 8.91 7.31 6.41 5.66 5.16 4.66 4.36 4.36 4.71 4.76 4.76 4.76 2.91 2.71 2.56 2.41 2.36 2.21 2.16 2.06 1.96 1.89 1.84 1.84 1.89 1.89 1.89 1.94 1.99 1.99 1.99 2.04 2.09 2.09 2.14 2.14 2.19 2.24 2.29 2.29 2.34 2.39 2.44 2.51 2.46 2.36 2.31 2.31 2.36 2.36 2.41 2.51 2.61 3.11 3.31 6.96 4.56 50.00 50.00 6.21 6.16 6.06 6.06 5.96 5.91 6.01 5.86 5.86 5.81 5.81 5.76 5.71 5.71 5.56 3.31 5.56 5.51 5.56 5.56 5.51 3.01 6.51 6.36 4.41 6.32 -0.000602 0.012727 -1.570796 -0.000602 0.012727 -1.570796 74.870199 nohost 4.690500
ODOM -0.000602 0.012727 -1.570796 0.000000 0.000000 0.000000 74.889799 nohost 4.710100
FLASER 180 46.57 47.27 12.57 14.77 12.17 12.27 12.17 11.77 10.52 9.42 8.62 7.92 7.37 6.77 6.37 6.02 5.67 5.37 5.12 4.82 4.62 4.42 4.22 4.07 3.87 3.77 3.67 3.52 3.37 3.27 3.17 3.12 3.02 2.92 2.82 2.77 2.75 2.70 2.60 2.60 2.50 2.40 2.40 2.35 2.35 2.30 2.25 2.25 2.15 2.15 2.10 2.10 2.05 2.05 2.00 2.00 1.95 1.95 1.93 1.91 1.93 2.00 2.10 2.15 2.17 2.27 2.37 2.47 2.62 2.72 2.82 3.02 3.12 3.37 3.57 3.82 4.07 4.42 4.82 5.22 5.77 6.27 7.17 8.37 9.92 12.17 18.82 21.77 24.67 30.32 30.32 30.32 16.42 12.77 10.12 8.92 7.27 6.42 5.67 5.17 4.67 4.37 4.37 4.72 4.77 4.77 4.82 2.87 2.72 2.57 2.47 2.32 2.27 2.12 2.07 1.97 1.87 1.85 1.85 1.85 1.90 1.95 1.95 1.95 2.00 2.00 2.05 2.10 2.10 2.15 2.20 2.20 2.25 2.30 2.25 2.35 2.40 2.40 2.47 2.42 2.37 2.32 2.37 2.37 2.42 2.47 2.52 2.57 3.17 3.27 6.92 4.57 50.00 50.00 6.17 6.12 6.12 6.02 5.97 5.92 6.02 5.87 5.82 5.82 5.77 5.77 5.72 5.72 5.57 3.27 5.52 5.57 5.52 5.57 5.52 3.02 6.52 6.42 4.42 6.32 -0.000602 0.012727 -1.570796 -0.000602 0.012727 -1.570796 75.031099 nohost 4.851400
ODOM -0.000602 0.012727 -1.570796 0.000000 0.000000 0.000000 75.049599 nohost 4.869900
FLASER 180 46.56 47.31 12.56 14.71 12.16 12.31 12.21 11.81 10.51 9.46 8.61 7.86 7.31 6.81 6.36 6.01 5.66 5.36 5.01 4.81 4.56 4.41 4.21 4.06 3.91 3.76 3.61 3.51 3.36 3.31 3.16 3.06 2.96 2.91 2.86 2.76 2.74 2.69 2.59 2.59 2.49 2.49 2.39 2.39 2.34 2.29 2.24 2.19 2.14 2.14 2.09 2.09 2.04 1.99 1.99 1.99 1.94 1.94 1.92 1.90 1.87 1.94 2.09 2.09 2.16 2.26 2.31 2.46 2.56 2.66 2.86 2.96 3.16 3.36 3.56 3.76 4.06 4.41 4.81 5.21 5.76 6.26 7.16 8.36 9.91 12.16 18.76 21.71 24.61 30.31 30.31 30.36 16.41 12.76 10.11 8.91 7.31 6.41 5.71 5.16 4.66 4.36 4.36 4.71 4.71 4.76 4.81 2.91 2.71 2.56 2.46 2.31 2.21 2.11 2.06 2.01 1.86 1.84 1.89 1.84 1.84 1.89 1.94 1.94 1.99 2.04 2.04 2.09 2.09 2.14 2.14 2.19 2.24 2.29 2.29 2.34 2.39 2.44 2.46 2.41 2.36 2.31 2.36 2.36 2.41 2.41 2.51 2.56 3.16 3.26 6.91 4.66 50.00 50.00 6.21 6.11 6.06 6.01 5.96 5.91 6.01 5.86 5.86 5.81 5.76 5.76 5.71 5.71 5.61 3.31 5.51 5.51 5.56 5.56 5.56 2.96 6.46 6.36 4.41 6.31 -0.000602 0.012727 -1.570796 -0.000602 0.012727 -1.570796 75.189599 nohost 5.009900
ODOM -0.000602 0.012727 -1.570796 0.000000 0.000000 0.000000 75.299800 nohost 5.120101
FLASER 180 46.51 47.21 12.56 14.71 12.11 12.26 12.16 11.76 10.56 9.46 8.61 7.91 7.26 6.81 6.36 6.01 5.66 5.36 5.06 4.81 4.61 4.36 4.26 4.06 3.86 3.71 3.61 3.51 3.36 3.26 3.16 3.11 3.01 2.91 2.86 2.76 2.71 2.69 2.64 2.59 2.49 2.44 2.39 2.34 2.34 2.29 2.24 2.19 2.14 2.14 2.14 2.09 1.99 2.04 1.99 1.99 1.94 1.94 1.92 1.92 1.92 1.99 2.04 2.14 2.19 2.31 2.36 2.46 2.56 2.71 2.86 2.96 3.11 3.36 3.51 3.81 4.11 4.41 4.76 5.26 5.81 6.26 7.21 8.31 9.91 12.11 18.76 21.71 24.66 30.31 30.31 30.31 16.36 12.76 10.11 8.91 7.26 6.36 5.71 5.16 4.66 4.36 4.36 4.71 4.76 4.76 4.81 2.86 2.71 2.56 2.46 2.31 2.26 2.11 2.06 2.01 1.91 1.89 1.89 1.84 1.89 1.94 1.94 1.94 1.99 2.04 2.04 2.09 2.09 2.14 2.14 2.19 2.24 2.29 2.29 2.34 2.39 2.44 2.51 2.46 2.36 2.31 2.36 2.36 2.41 2.46 2.51 2.56 3.11 3.31 6.91 4.46 50.00 50.00 6.21 6.11 6.06 6.01 5.96 5.91 6.01 5.86 5.81 5.81 5.76 5.71 5.71 5.71 5.56 3.31 5.56 5.56 5.56 5.56 5.51 2.96 6.46 6.41 4.41 6.31 -0.000602 0.012727 -1.570796 -0.000602 0.012727 -1.570796 75.349599 nohost 5.169900
ODOM -0.000602 0.012727 -1.570796 0.000000 0.000000 0.000000 75.439599 nohost 5.259900
FLASER 180 46.56 47.31 12.56 14.71 12.11 12.26 12.16 11.76 10.51 9.46 8.61 7.91 7.31 6.76 6.36 5.96 5.66 5.36 5.11 4.86 4.61 4.41 4.21 4.06 3.91 3.71 3.61 3.51 3.36 3.26 3.16 3.11 3.01 2.91 2.81 2.76 2.71 2.66 2.61 2.54 2.49 2.44 2.39 2.34 2.29 2.24 2.24 2.24 2.19 2.14 2.14 2.09 2.04 2.04 1.99 1.99 1.94 1.94 1.92 1.92 1.92 1.99 2.04 2.14 2.16 2.26 2.36 2.46 2.56 2.71 2.81 3.01 3.16 3.36 3.56 3.81 4.11 4.41 4.76 5.21 5.76 6.26 7.21 8.36 9.91 12.11 18.76 21.71 24.66 30.31 30.31 30.31 16.41 12.71 10.16 8.91 7.31 6.41 5.66 5.11 4.66 4.36 4.36 4.71 4.71 4.76 4.76 2.86 2.71 2.56 2.46 2.36 2.26 2.16 2.01 1.96 1.86 1.84 1.89 1.89 1.89 1.94 1.94 1.99 1.94 1.99 2.04 2.09 2.14 2.09 2.14 2.19 2.24 2.24 2.29 2.34 2.39 2.44 2.46 2.41 2.31 2.36 2.31 2.36 2.46 2.46 2.51 2.56 3.16 3.26 6.91 4.56 50.00 50.00 6.21 6.11 6.06 6.06 5.96 5.91 6.01 5.86 5.81 5.81 5.81 5.76 5.71 5.71 5.61 3.31 5.56 5.51 5.51 5.51 5.56 2.96 6.41 6.41 4.46 6.31 -0.000602 0.012727 -1.570796 -0.000602 0.012727 -1.570796 75.509600 nohost 5.329901
ODOM -0.000602 0.012727 -1.570796 0.000000 0.000000 0.000000 75.549599 nohost 5.369900
FLASER 180 46.51 47.26 12.56 14.76 12.16 12.26 12.16 11.76 10.51 9.46 8.56 7.91 7.26 6.81 6.36 6.01 5.66 5.31 5.11 4.86 4.56 4.36 4.26 4.06 3.91 3.71 3.61 3.51 3.36 3.26 3.16 3.11 3.01 2.86 2.86 2.76 2.71 2.64 2.59 2.54 2.49 2.44 2.44 2.34 2.34 2.29 2.24 2.19 2.19 2.14 2.14 2.09 2.04 2.04 1.99 1.94 1.94 1.94 1.92 1.90 1.87 1.99 2.09 2.14 2.21 2.26 2.36 2.41 2.56 2.66 2.86 2.96 3.16 3.31 3.56 3.81 4.06 4.41 4.76 5.26 5.76 6.26 7.16 8.31 9.91 12.11 18.81 21.76 24.66 30.31 30.31 30.31 16.41 12.76 10.11 8.96 7.31 6.41 5.66 5.16 4.71 4.36 4.41 4.76 4.71 4.76 4.81 2.86 2.71 2.56 2.41 2.31 2.26 2.11 2.01 1.96 1.94 1.84 1.84 1.89 1.89 1.89 1.94 1.94 1.99 1.99 2.04 2.04 2.09 2.14 2.19 2.19 2.24 2.29 2.29 2.34 2.39 2.44 2.51 2.46 2.36 2.31 2.36 2.36 2.41 2.46 2.46 2.56 3.11 3.31 6.96 4.51 50.00 50.00 6.21 6.16 6.06 6.01 5.96 5.91 5.96 5.86 5.81 5.81 5.76 5.76 5.76 5.71 5.56 3.31 5.56 5.56 5.51 5.56 5.56 2.91 6.46 6.41 4.41 6.36 -0.000602 0.012727 -1.570796 -0.000602 0.012727 -1.570796 75.670199 nohost 5.490500
ODOM -0.000602 0.012727 -1.570796 0.000000 0.000000 0.000000 75.739699 nohost 5.560000
FLASER 180 46.57 47.27 12.57 14.72 12.12 12.27 12.22 11.77 10.52 9.47 8.67 7.92 7.32 6.82 6.37 6.02 5.62 5.37 5.07 4.82 4.57 4.42 4.22 4.07 3.92 3.77 3.67 3.47 3.42 3.27 3.22 3.07 3.02 2.92 2.87 2.77 2.72 2.70 2.60 2.55 2.50 2.50 2.40 2.35 2.30 2.25 2.25 2.20 2.20 2.15 2.10 2.05 2.05 2.05 2.00 2.00 1.95 1.95 1.98 1.96 1.93 2.00 2.05 2.15 2.17 2.22 2.42 2.47 2.62 2.72 2.82 2.97 3.17 3.37 3.52 3.82 4.07 4.42 4.82 5.27 5.77 6.27 7.22 8.37 9.92 12.12 18.77 21.77 24.67 30.27 30.32 30.37 16.42 12.72 10.17 8.97 7.32 6.37 5.72 5.12 4.67 4.37 4.37 4.72 4.72 4.77 4.77 2.87 2.72 2.52 2.42 2.37 2.22 2.12 2.07 1.97 1.92 1.85 1.85 1.85 1.90 1.90 1.95 1.95 2.00 2.05 2.05 2.10 2.10 2.10 2.15 2.20 2.25 2.30 2.30 2.40 2.40 2.45 2.52 2.42 2.37 2.32 2.37 2.42 2.42 2.47 2.47 2.57 3.17 3.27 6.92 4.57 50.00 50.00 6.22 6.12 6.07 6.02 6.02 5.92 6.02 5.87 5.87 5.82 5.77 5.77 5.72 5.72 5.57 3.32 5.57 5.52 5.52 5.57 5.57 2.97 6.47 6.37 4.42 6.38 -0.000602 0.012727 -1.570796 -0.000602 0.012727 -1.570796 75.871099 nohost 5.691400
ODOM -0.000602 0.012727 -1.570796 0.000000 0.000000 0.000000 75.889799 nohost 5.710100
FLASER 180 46.57 47.37 12.52 14.72 12.17 12.27 12.22 11.77 10.57 9.52 8.67 7.97 7.27 6.82 6.37 6.02 5.62 5.32 5.07 4.82 4.62 4.37 4.22 4.07 3.92 3.77 3.67 3.47 3.42 3.27 3.17 3.12 3.02 2.92 2.87 2.77 2.72 2.65 2.65 2.55 2.50 2.45 2.40 2.35 2.35 2.30 2.25 2.20 2.15 2.10 2.15 2.05 2.05 2.00 2.00 2.00 1.95 1.95 1.98 1.96 1.93 2.00 2.10 2.15 2.22 2.32 2.37 2.47 2.57 2.72 2.87 2.97 3.17 3.32 3.57 3.87 4.12 4.42 4.77 5.22 5.77 6.22 7.27 8.37 9.92 12.12 18.77 21.77 24.67 30.32 30.32 30.32 16.42 12.77 10.12 8.92 7.32 6.42 5.67 5.12 4.67 4.37 4.37 4.72 4.72 4.72 4.77 2.87 2.72 2.57 2.47 2.32 2.22 2.12 2.02 2.02 1.92 1.85 1.90 1.85 1.95 1.90 1.95 1.95 2.00 2.05 2.05 2.10 2.10 2.15 2.15 2.25 2.25 2.30 2.30 2.40 2.40 2.45 2.52 2.42 2.37 2.32 2.37 2.37 2.42 2.47 2.52 2.62 3.17 3.27 6.92 4.57 50.00 50.00 6.17 6.12 6.07 6.02 5.97 5.92 6.02 5.87 5.82 5.77 5.77 5.77 5.72 5.72 5.57 3.32 5.57 5.52 5.52 5.57 5.57 3.02 6.47 6.37 4.47 6.38 -0.000602 0.012727 -1.570796 -0.000602 0.012727 -1.570796 75.949600 nohost 5.769901
ODOM -0.000602 0.012727 -1.570796 0.000000 0.000000 0.000000 76.050100 nohost 5.870401
FLASER 180 46.57 47.32 12.57 14.77 12.17 12.27 12.22 11.72 10.52 9.47 8.67 7.92 7.32 6.77 6.37 6.02 5.62 5.32 5.07 4.82 4.62 4.42 4.27 4.07 3.87 3.77 3.62 3.47 3.37 3.27 3.17 3.07 3.02 2.92 2.87 2.77 2.75 2.70 2.60 2.55 2.50 2.45 2.45 2.35 2.35 2.25 2.25 2.20 2.15 2.15 2.10 2.10 2.05 2.05 2.00 2.00 1.95 1.90 1.98 1.93 1.93 2.00 2.05 2.12 2.22 2.27 2.37 2.47 2.62 2.67 2.82 3.02 3.17 3.37 3.57 3.82 4.07 4.42 4.82 5.27 5.72 6.22 7.22 8.42 9.92 12.12 18.77 21.82 24.62 30.37 30.32 30.32 16.42 12.72 10.17 8.92 7.37 6.42 5.67 5.17 4.67 4.42 4.42 4.67 4.77 4.77 4.82 2.87 2.72 2.57 2.47 2.32 2.22 2.17 2.07 1.97 1.95 1.85 1.85 1.90 1.90 1.95 1.90 2.00 2.00 2.00 2.05 2.05 2.10 2.10 2.15 2.25 2.25 2.30 2.30 2.40 2.40 2.45 2.52 2.47 2.32 2.32 2.37 2.42 2.42 2.42 2.52 2.62 3.12 3.32 6.92 4.52 50.00 50.00 6.22 6.17 6.12 6.02 5.97 5.97 6.02 5.87 5.82 5.77 5.77 5.77 5.77 5.72 5.62 3.32 5.57 5.52 5.57 5.52 5.57 2.97 6.47 6.37 4.42 6.32 -0.000602 0.012727 -1.570796 -0.000602 0.012727 -1.570796 76.189999 nohost 6.010300
ODOM -0.000602 0.012727 -1.570796 0.000000 0.000000 0.000000 76.200299 nohost 6.020600
FLASER 180 46.57 47.32 12.57 14.82 12.17 12.27 12.22 11.77 10.57 9.47 8.62 7.92 7.32 6.82 6.37 6.02 5.62 5.32 5.07 4.82 4.62 4.42 4.22 4.07 3.92 3.77 3.62 3.52 3.37 3.27 3.22 3.12 3.02 2.92 2.87 2.77 2.75 2.65 2.60 2.60 2.50 2.45 2.45 2.35 2.35 2.25 2.20 2.20 2.15 2.15 2.10 2.10 2.05 2.00 2.00 2.00 1.95 1.95 1.93 1.93 1.88 2.00 2.10 2.15 2.17 2.27 2.32 2.47 2.57 2.72 2.87 3.02 3.17 3.32 3.57 3.82 4.12 4.37 4.77 5.22 5.77 6.22 7.22 8.32 9.92 12.12 18.77 21.77 24.67 30.32 30.37 30.37 16.42 12.72 10.17 8.97 7.32 6.37 5.67 5.22 4.67 4.42 4.37 4.72 4.72 4.77 4.77 2.87 2.67 2.62 2.47 2.32 2.22 2.17 2.07 1.97 1.90 1.85 1.85 1.90 1.90 1.90 1.95 1.95 2.00 2.00 2.05 2.10 2.10 2.10 2.15 2.20 2.25 2.25 2.35 2.40 2.40 2.45 2.52 2.47 2.32 2.32 2.42 2.42 2.42 2.42 2.52 2.57 3.17 3.32 6.92 4.57 50.00 50.00 6.17 6.12 6.07 6.02 5.97 5.92 6.02 5.87 5.87 5.82 5.77 5.77 5.72 5.72 5.62 3.32 5.57 5.52 5.52 5.52 5.52 2.97 6.47 6.37 4.47 6.32 -0.000602 0.012727 -1.570796 -0.000602 0.012727 -1.570796 76.309899 nohost 6.130200
ODOM -0.000602 0.012727 -1.570796 0.000000 0.000000 0.000000 76.369799 nohost 6.190100
FLASER 180 46.52 47.32 12.57 14.77 12.17 12.32 12.17 11.77 10.57 9.47 8.62 7.92 7.27 6.82 6.32 6.02 5.62 5.32 5.07 4.82 4.62 4.37 4.22 4.02 3.92 3.77 3.62 3.47 3.42 3.32 3.17 3.07 3.02 2.92 2.87 2.77 2.72 2.65 2.60 2.55 2.55 2.45 2.40 2.35 2.35 2.30 2.20 2.20 2.20 2.15 2.10 2.10 2.05 2.00 2.00 1.95 1.95 1.95 1.93 1.91 1.93 1.95 2.05 2.15 2.17 2.27 2.37 2.42 2.57 2.72 2.82 3.02 3.17 3.32 3.57 3.77 4.12 4.42 4.77 5.27 5.77 6.22 7.22 8.37 9.87 12.07 18.77 21.77 24.62 30.37 30.32 30.32 16.37 12.77 10.12 8.97 7.32 6.42 5.67 5.17 4.72 4.37 4.42 4.72 4.72 4.77 4.82 2.87 2.72 2.57 2.47 2.32 2.22 2.12 2.07 2.02 1.95 1.90 1.90 1.90 1.85 1.95 1.95 2.00 2.00 2.00 2.05 2.10 2.10 2.15 2.15 2.20 2.25 2.30 2.30 2.35 2.40 2.40 2.47 2.47 2.37 2.32 2.37 2.42 2.42 2.47 2.52 2.57 3.12 3.27 6.97 4.52 50.00 50.00 6.22 6.12 6.07 6.02 5.97 5.92 6.02 5.87 5.82 5.82 5.77 5.77 5.72 5.72 5.62 3.27 5.57 5.52 5.52 5.52 5.52 2.92 6.47 6.37 4.42 6.37 -0.000602 0.012727 -1.570796 -0.000602 0.012727 -1.570796 76.429900 nohost 6.250201
ODOM -0.000602 0.012727 -1.570796 0.000000 0.000000 0.000000 76.499499 nohost 6.319800
FLASER 180 46.57 47.32 12.57 14.72 12.17 12.27 12.22 11.77 10.52 9.47 8.67 7.92 7.32 6.77 6.32 6.02 5.62 5.32 5.07 4.82 4.62 4.42 4.22 4.02 3.92 3.77 3.62 3.47 3.37 3.27 3.17 3.07 2.97 2.92 2.87 2.77 2.67 2.65 2.60 2.55 2.55 2.45 2.40 2.35 2.30 2.30 2.25 2.20 2.15 2.15 2.10 2.05 2.05 2.05 2.00 2.00 1.95 1.95 1.93 1.91 1.88 2.00 2.05 2.12 2.22 2.27 2.37 2.42 2.57 2.72 2.82 2.97 3.17 3.32 3.57 3.82 4.07 4.37 4.82 5.27 5.77 6.22 7.22 8.37 9.92 12.12 18.77 21.77 24.62 30.37 30.32 30.32 16.42 12.77 10.12 8.92 7.32 6.42 5.67 5.22 4.67 4.37 4.37 4.72 4.72 4.77 4.77 2.82 2.67 2.57 2.42 2.32 2.22 2.17 2.07 1.97 1.95 1.90 1.85 1.85 1.90 1.95 1.95 2.00 2.00 2.05 2.05 2.10 2.10 2.15 2.20 2.20 2.25 2.25 2.30 2.35 2.40 2.45 2.47 2.47 2.32 2.32 2.32 2.37 2.42 2.47 2.52 2.57 3.12 3.27 6.97 4.62 50.00 50.00 6.17 6.17 6.07 6.02 5.97 5.92 6.02 5.87 5.87 5.82 5.77 5.77 5.77 5.72 5.62 3.32 5.57 5.57 5.57 5.52 5.52 2.97 6.47 6.37 4.47 6.37 -0.000602 0.012727 -1.570796 -0.000602 0.012727 -1.570796 76.669600 nohost 6.489901
ODOM -0.000602 0.012727 -1.570796 0.000000 0.000000 0.000000 76.689599 nohost 6.509900
FLASER 180 46.52 47.37 12.57 14.77 12.17 12.27 12.17 11.77 10.52 9.47 8.67 7.92 7.32 6.82 6.37 6.02 5.67 5.37 5.07 4.82 4.57 4.42 4.22 4.07 3.87 3.77 3.67 3.52 3.37 3.27 3.17 3.07 3.02 2.92 2.87 2.77 2.72 2.65 2.60 2.55 2.50 2.50 2.45 2.35 2.35 2.30 2.25 2.20 2.15 2.15 2.10 2.10 2.05 2.05 2.00 1.95 1.95 1.95 1.93 1.91 1.93 2.00 2.05 2.12 2.17 2.27 2.37 2.47 2.57 2.67 2.87 3.02 3.12 3.37 3.57 3.82 4.12 4.42 4.82 5.27 5.77 6.22 7.22 8.37 9.92 12.12 18.77 21.77 24.67 30.32 30.32 30.32 16.42 12.77 10.17 8.92 7.32 6.42 5.67 5.12 4.72 4.42 4.37 4.72 4.77 4.72 4.82 2.87 2.72 2.52 2.47 2.32 2.22 2.17 2.07 1.97 1.95 1.85 1.90 1.90 1.90 1.90 2.00 1.95 2.00 2.00 2.05 2.05 2.10 2.15 2.15 2.20 2.25 2.30 2.30 2.35 2.40 2.40 2.47 2.47 2.32 2.27 2.37 2.37 2.42 2.47 2.52 2.57 3.17 3.32 6.97 4.57 50.00 50.00 6.22 6.12 6.07 6.02 5.97 5.92 6.02 5.87 5.82 5.82 5.77 5.77 5.72 5.72 5.57 3.32 5.57 5.52 5.57 5.57 5.57 3.02 6.47 6.37 4.42 6.37 -0.000602 0.012727 -1.570796 -0.000602 0.012727 -1.570796 76.790000 nohost 6.610301
ODOM -0.000602 0.012727 -1.570796 0.000000 0.000000 0.000000 76.819699 nohost 6.640000
FLASER 180 46.57 47.27 12.52 14.72 12.12 12.32 12.22 11.77 10.52 9.42 8.62 7.92 7.27 6.82 6.32 5.97 5.62 5.32 5.02 4.82 4.57 4.37 4.22 4.07 3.92 3.77 3.67 3.47 3.37 3.27 3.17 3.07 2.97 2.92 2.87 2.82 2.72 2.70 2.60 2.55 2.50 2.50 2.40 2.40 2.30 2.30 2.20 2.20 2.20 2.10 2.10 2.05 2.05 2.00 2.00 1.95 1.95 1.95 1.98 1.93 1.93 2.00 2.05 2.10 2.17 2.27 2.37 2.47 2.57 2.72 2.87 3.02 3.17 3.37 3.57 3.82 4.07 4.37 4.77 5.27 5.77 6.22 7.22 8.32 9.92 12.17 18.77 21.77 24.62 30.32 30.37 30.37 16.42 12.77 10.17 8.92 7.37 6.42 5.67 5.17 4.67 4.37 4.37 4.72 4.77 4.77 4.82 2.87 2.77 2.57 2.42 2.37 2.27 2.12 2.07 2.02 1.90 1.85 1.85 1.90 1.90 1.95 1.95 1.95 1.95 2.00 2.05 2.10 2.15 2.15 2.20 2.20 2.25 2.25 2.30 2.35 2.40 2.40 2.47 2.42 2.37 2.37 2.37 2.37 2.37 2.47 2.52 2.62 3.12 3.32 6.97 4.67 50.00 50.00 6.22 6.12 6.12 6.02 5.97 5.92 6.02 5.87 5.87 5.82 5.77 5.77 5.77 5.72 5.57 3.32 5.57 5.57 5.57 5.57 5.52 2.97 6.47 6.37 4.47 6.32 -0.000602 0.012727 -1.570796 -0.000602 0.012727 -1.570796 76.909599 nohost 6.729900
ODOM -0.000602 0.012727 -1.570796 0.000000 0.000000 0.000000 76.970100 nohost 6.790401
FLASER 180 46.57 47.27 12.57 14.72 12.17 12.27 12.17 11.72 10.52 9.47 8.62 7.92 7.32 6.77 6.37 6.02 5.62 5.32 5.07 4.82 4.62 4.42 4.22 4.02 3.92 3.72 3.62 3.52 3.42 3.27 3.22 3.12 3.02 2.97 2.82 2.77 2.72 2.70 2.65 2.60 2.50 2.40 2.40 2.35 2.35 2.30 2.30 2.20 2.20 2.15 2.10 2.05 2.05 2.05 2.00 1.95 1.95 1.95 1.93 1.96 1.93 2.00 2.05 2.12 2.17 2.27 2.37 2.47 2.57 2.67 2.82 2.97 3.17 3.32 3.57 3.87 4.12 4.37 4.82 5.27 5.77 6.22 7.22 8.37 9.87 12.12 18.77 21.77 24.62 30.27 30.32 30.32 16.42 12.77 10.17 8.92 7.27 6.47 5.67 5.12 4.67 4.42 4.37 4.67 4.77 4.77 4.77 2.82 2.72 2.52 2.47 2.32 2.22 2.12 2.07 2.02 1.95 1.85 1.85 1.90 1.90 1.90 1.95 1.95 2.00 2.00 2.05 2.10 2.10 2.15 2.20 2.20 2.25 2.30 2.30 2.35 2.40 2.45 2.47 2.47 2.37 2.32 2.32 2.37 2.37 2.42 2.52 2.57 3.12 3.27 6.92 4.57 50.00 50.00 6.17 6.17 6.07 6.02 5.97 5.92 6.02 5.87 5.87 5.82 5.82 5.77 5.77 5.72 5.62 3.32 5.57 5.52 5.52 5.52 5.52 3.02 6.47 6.37 4.47 6.37 -0.000602 0.012727 -1.570796 -0.000602 0.012727 -1.570796 77.070199 nohost 6.890500
ODOM -0.000602 0.012727 -1.570796 0.000000 0.000000 0.000000 77.099999 nohost 6.920300
FLASER 180 46.52 47.27 12.52 14.72 12.17 12.27 12.22 11.72 10.52 9.47 8.62 7.92 7.27 6.82 6.37 6.02 5.67 5.32 5.07 4.82 4.62 4.37 4.22 4.07 3.92 3.77 3.62 3.52 3.37 3.27 3.17 3.12 3.02 2.92 2.87 2.77 2.72 2.70 2.65 2.55 2.50 2.45 2.45 2.35 2.35 2.25 2.25 2.25 2.15 2.15 2.10 2.10 2.05 2.05 2.00 1.95 1.90 1.95 1.98 1.91 1.93 2.00 2.10 2.15 2.22 2.27 2.37 2.47 2.62 2.72 2.82 2.97 3.12 3.32 3.57 3.82 4.07 4.37 4.82 5.27 5.77 6.22 7.17 8.32 9.92 12.12 18.77 21.77 24.67 30.32 30.32 30.32 16.42 12.72 10.17 8.92 7.32 6.42 5.67 5.17 4.67 4.42 4.37 4.72 4.77 4.77 4.77 2.87 2.67 2.57 2.47 2.37 2.22 2.17 2.02 1.97 1.92 1.85 1.85 1.90 1.90 1.95 1.95 1.95 2.00 2.05 2.05 2.05 2.10 2.15 2.20 2.20 2.25 2.30 2.30 2.40 2.40 2.45 2.47 2.47 2.37 2.32 2.37 2.37 2.42 2.42 2.52 2.57 3.12 3.27 6.97 4.62 50.00 50.00 6.17 6.17 6.07 6.02 6.02 5.92 6.02 5.87 5.87 5.82 5.77 5.72 5.72 5.72 5.57 3.32 5.52 5.52 5.57 5.57 5.52 3.02 6.52 6.37 4.42 6.37 -0.000602 0.012727 -1.570796 -0.000602 0.012727 -1.570796 77.229600 nohost 7.049901
ODOM -0.000602 0.012727 -1.570796 0.000000 0.000000 0.000000 77.269599 nohost 7.089900
FLASER 180 46.57 47.27 12.57 14.77 12.17 12.27 12.22 11.72 10.52 9.47 8.62 7.92 7.32 6.82 6.37 6.02 5.67 5.32 5.07 4.87 4.57 4.42 4.22 4.07 3.87 3.77 3.62 3.52 3.37 3.27 3.17 3.07 3.02 2.92 2.82 2.77 2.70 2.65 2.60 2.60 2.55 2.50 2.40 2.35 2.30 2.30 2.25 2.20 2.15 2.15 2.10 2.05 2.05 2.05 2.00 2.00 2.00 1.95 1.98 1.91 1.93 2.00 2.05 2.12 2.22 2.27 2.32 2.47 2.57 2.72 2.82 2.97 3.17 3.37 3.57 3.82 4.12 4.47 4.77 5.27 5.77 6.22 7.17 8.37 9.92 12.17 18.77 21.72 24.67 30.32 30.32 30.32 16.42 12.77 10.17 8.92 7.32 6.42 5.67 5.17 4.67 4.42 4.42 4.72 4.77 4.72 4.77 2.87 2.72 2.57 2.47 2.37 2.22 2.12 2.07 1.97 1.90 1.85 1.85 1.85 1.90 1.90 1.90 2.00 2.00 2.00 2.10 2.05 2.10 2.15 2.20 2.20 2.20 2.30 2.30 2.35 2.40 2.50 2.52 2.47 2.37 2.32 2.37 2.37 2.47 2.42 2.52 2.57 3.17 3.27 6.97 4.52 50.00 50.00 6.22 6.17 6.12 6.02 5.97 5.92 6.02 5.87 5.82 5.82 5.77 5.72 5.77 5.72 5.57 3.27 5.52 5.57 5.57 5.52 5.52 2.97 6.47 6.37 4.42 6.32 -0.000602 0.012727 -1.570796 -0.000602 0.012727 -1.570796 77.389600 nohost 7.209901
ODOM -0.000602 0.012727 -1.570796 0.000000 0.000000 0.000000 77.400400 nohost 7.220701
FLASER 180 46.57 47.32 12.57 14.72 12.17 12.27 12.22 11.72 10.52 9.47 8.62 7.92 7.32 6.77 6.32 6.02 5.62 5.37 5.12 4.82 4.57 4.42 4.22 4.07 3.92 3.72 3.62 3.52 3.42 3.27 3.17 3.07 3.02 2.92 2.87 2.77 2.72 2.65 2.60 2.60 2.50 2.45 2.40 2.35 2.30 2.30 2.20 2.20 2.20 2.15 2.10 2.05 2.05 2.00 2.00 1.95 1.95 1.96 1.93 1.91 1.88 2.00 2.05 2.17 2.22 2.27 2.37 2.47 2.57 2.72 2.82 3.02 3.17 3.32 3.57 3.82 4.12 4.47 4.82 5.27 5.77 6.27 7.22 8.37 9.92 12.12 18.82 21.72 24.57 30.32 30.37 30.32 16.42 12.82 10.12 8.92 7.32 6.42 5.67 5.17 4.62 4.37 4.37 4.72 4.77 4.77 4.77 2.82 2.72 2.57 2.47 2.27 2.22 2.12 2.07 1.97 1.90 1.90 1.85 1.85 1.90 1.90 1.95 1.95 2.00 2.00 2.05 2.05 2.10 2.15 2.15 2.20 2.20 2.30 2.35 2.35 2.40 2.45 2.47 2.42 2.37 2.32 2.32 2.42 2.42 2.42 2.52 2.62 3.12 3.32 6.97 4.62 50.00 50.00 6.22 6.17 6.07 6.07 6.02 5.92 6.02 5.87 5.87 5.82 5.77 5.77 5.72 5.67 5.62 3.32 5.57 5.52 5.57 5.57 5.57 3.02 6.52 6.37 4.47 6.33 -0.000602 0.012727 -1.570796 -0.000602 0.012727 -1.570796 77.470100 nohost 7.290401
ODOM -0.000602 0.012727 -1.570796 0.000000 0.000000 0.000000 77.579800 nohost 7.400101
FLASER 180 46.51 47.26 12.56 14.76 12.11 12.31 12.21 11.76 10.56 9.46 8.61 7.96 7.26 6.81 6.36 6.01 5.66 5.31 5.06 4.81 4.56 4.41 4.16 4.06 3.86 3.76 3.61 3.46 3.41 3.26 3.21 3.11 3.01 2.91 2.81 2.76 2.74 2.69 2.59 2.54 2.49 2.44 2.39 2.34 2.29 2.29 2.24 2.24 2.14 2.14 2.09 2.04 2.04 1.99 1.99 1.94 1.94 1.94 1.92 1.90 1.92 1.99 2.09 2.11 2.21 2.31 2.36 2.46 2.56 2.71 2.81 2.96 3.16 3.36 3.56 3.76 4.06 4.41 4.81 5.26 5.76 6.26 7.16 8.36 9.91 12.11 18.76 21.71 24.61 30.31 30.31 30.31 16.41 12.71 10.11 8.96 7.31 6.41 5.66 5.11 4.66 4.36 4.41 4.71 4.71 4.76 4.76 2.86 2.66 2.56 2.46 2.31 2.26 2.11 2.06 1.96 1.94 1.89 1.84 1.89 1.94 1.89 1.94 1.94 1.99 1.99 2.04 2.09 2.14 2.14 2.19 2.19 2.24 2.24 2.29 2.34 2.39 2.39 2.46 2.46 2.31 2.31 2.36 2.41 2.41 2.41 2.51 2.56 3.11 3.31 6.91 4.51 50.00 50.00 6.21 6.11 6.06 6.01 5.96 5.96 6.01 5.86 5.86 5.81 5.76 5.71 5.71 5.71 5.56 3.31 5.51 5.51 5.56 5.56 5.56 2.96 6.51 6.36 4.41 6.36 -0.000602 0.012727 -1.570796 -0.000602 0.012727 -1.570796 77.629599 nohost 7.449900
ODOM -0.000602 0.012727 -1.570796 0.000000 0.000000 0.000000 77.711100 nohost 7.531401
FLASER 180 46.56 47.26 12.56 14.76 12.16 12.26 12.16 11.76 10.51 9.46 8.61 7.91 7.26 6.81 6.36 6.01 5.66 5.31 5.06 4.81 4.56 4.41 4.21 4.01 3.86 3.76 3.61 3.46 3.36 3.31 3.21 3.06 3.01 2.96 2.86 2.76 2.71 2.64 2.54 2.59 2.49 2.44 2.39 2.34 2.34 2.24 2.24 2.19 2.14 2.14 2.09 2.09 2.04 2.04 1.99 1.94 1.94 1.94 1.97 1.95 1.92 1.99 2.09 2.09 2.19 2.31 2.31 2.51 2.56 2.71 2.86 2.96 3.16 3.31 3.56 3.81 4.06 4.41 4.81 5.26 5.76 6.21 7.21 8.36 9.86 12.11 18.81 21.76 24.66 30.31 30.31 30.31 16.41 12.71 10.11 8.96 7.31 6.41 5.66 5.16 4.71 4.41 4.36 4.71 4.71 4.76 4.76 2.86 2.71 2.56 2.46 2.36 2.21 2.11 2.06 1.96 1.91 1.84 1.84 1.89 1.89 1.89 1.94 1.99 1.99 1.99 2.04 2.04 2.09 2.14 2.19 2.19 2.19 2.24 2.29 2.34 2.39 2.44 2.46 2.41 2.31 2.31 2.36 2.41 2.41 2.46 2.51 2.56 3.11 3.26 6.91 4.66 50.00 50.00 6.21 6.11 6.06 6.01 5.96 5.91 6.01 5.86 5.81 5.81 5.76 5.71 5.71 5.71 5.61 3.31 5.56 5.51 5.56 5.56 5.51 2.96 6.46 6.36 4.41 6.36 -0.000602 0.012727 -1.570796 -0.000602 0.012727 -1.570796 77.791200 nohost 7.611501
ODOM -0.000602 0.012727 -1.570796 0.000000 0.000000 0.000000 77.889499 nohost 7.709800
FLASER 180 46.51 47.26 12.56 14.71 12.16 12.26 12.21 11.76 10.56 9.46 8.66 7.91 7.31 6.81 6.36 6.01 5.66 5.31 5.06 4.81 4.61 4.41 4.21 4.06 3.86 3.76 3.61 3.46 3.36 3.26 3.16 3.06 3.01 2.91 2.86 2.76 2.71 2.64 2.64 2.54 2.49 2.44 2.44 2.34 2.34 2.29 2.19 2.19 2.14 2.14 2.09 2.09 2.04 1.99 1.99 1.94 1.94 1.94 1.92 1.90 1.92 1.94 2.04 2.14 2.16 2.26 2.36 2.46 2.56 2.71 2.81 3.01 3.16 3.36 3.56 3.86 4.11 4.46 4.76 5.31 5.76 6.26 7.21 8.36 9.91 12.16 18.76 21.71 24.66 30.31 30.31 30.31 16.36 12.71 10.11 8.91 7.31 6.41 5.66 5.16 4.66 4.36 4.41 4.71 4.71 4.76 4.76 2.86 2.71 2.56 2.46 2.31 2.26 2.11 2.01 1.99 1.94 1.84 1.89 1.84 1.89 1.89 1.94 1.99 1.99 1.99 2.04 2.09 2.09 2.14 2.14 2.19 2.19 2.24 2.29 2.34 2.39 2.44 2.46 2.46 2.31 2.31 2.41 2.36 2.41 2.41 2.51 2.56 3.16 3.26 6.91 4.51 50.00 50.00 6.16 6.11 6.06 6.01 5.96 5.96 6.01 5.86 5.81 5.81 5.76 5.76 5.71 5.71 5.56 3.31 5.56 5.56 5.51 5.56 5.56 2.96 6.51 6.36 4.41 6.36 -0.000602 0.012727 -1.570796 -0.000602 0.012727 -1.570796 77.949600 nohost 7.769901
ODOM -0.000602 0.012727 -1.570796 0.000000 0.000000 0.000000 78.039599 nohost 7.859900
